Fuel Type Code,Station Name,Street Address,Intersection Directions,City,State,ZIP,County,EV Connector Types,,EV Level1 EVSE Num,EV Level2 EVSE Num,EV DC Fast Count,EV Other Info,EV Network,Geocode Status,Latitude,Longitude,Date Last Confirmed,ID
ELEC,Central Parking - Tower 31,9 W 31st Street,,New York,NY,10001,New York,J1772,,,2,,,Blink Network,GPS,40.74709,-73.98667,7/31/19,95069
ELEC,BEAM CHARGING,776 Avenue of the Americas,"777 SIXTH AVE; Enter parking garage on 26th Ave, between 6th ave and Broadway (North Side). See valet attendant to use charging station.",New York,NY,10001,New York,J1772,,,2,,,ChargePoint Network,GPS,40.7449139,-73.9910276,6/12/19,80061
ELEC,iPark Eleventh Avenue Garage Corp. - Tesla Destination,552 W 30th St,,New York,NY,10001,New York,TESLA,,,2,,,Tesla Destination,200-8,40.752693,-74.002954,5/9/19,115161
ELEC,Quik Park Garden Lots LLC - Tesla Destination,126 West 32nd St,,New York,NY,10001,New York,TESLA,,,2,,,Tesla Destination,200-9,40.748789,-73.989915,5/9/19,115009
ELEC,GGMC Parking - 550 W 25th - Tesla Destination,550 W 25th St,,New York,NY,10001,New York,TESLA,,,1,,,Tesla Destination,200-9,40.749666,-74.005485,5/9/19,115160
ELEC,MPG 500 West 30th - Tesla Destination,500 W 30th,,New York,NY,10001,New York,TESLA,,,2,,,Tesla Destination,200-9,40.751987,-74.001701,5/9/19,115145
ELEC,Standard Parking 800 6th Ave - Tesla Destination,54 W 28th St,,New York,NY,10001,New York,TESLA,,,2,,,Tesla Destination,200-8,40.745449,-73.989622,5/9/19,115155
ELEC,776 Sixth Avenue,776 Avenue of the Americas,Enter Parking garage on 26th Ave.  Between 6th Ave. and Broadway (North  Side). See valet to use charging  station. ,New York,NY,10001,New York,J1772,,,1,,,Blink Network,GPS,40.74528,-73.991422,7/31/19,124142
ELEC,Eventi Hotel - LAZ,851 Avenue of the Americas,,New York,NY,10001,New York,J1772,,,1,,,Blink Network,GPS,40.758681,-73.98135,7/31/19,124149
ELEC,iPark 200 West Garage Corp. - Tesla Destination,220 W 26th St,,New York,NY,10001,New York,TESLA,,,2,,,Tesla Destination,200-9,40.746142,-73.995221,5/9/19,115055
ELEC,MPG 530 West 30th - Tesla Destination,530 W 30th,,New York,NY,10001,New York,TESLA,,,2,,,Tesla Destination,200-9,40.752558,-74.002736,5/9/19,115152
ELEC,iPark - 59 Allen Street Garage,59 Allen Street,Attendant will assist in charging  vehicle.  Parking rates apply. Inquire  within. ,New York,NY,10002,New York,J1772,,,2,,,Blink Network,GPS,40.717195,-73.991658,7/31/19,95271
ELEC,Delancey & Essex Municipal Parking Garage,107 Essex St,,Manhattan,NY,10002,New York,J1772,,,5,,,EV Connect,200-8,40.719051,-73.988181,5/9/19,94848
ELEC,Icon Parking 240 East Broadway - Tesla Destination,188 Clinton St,,New York,NY,10002,New York,TESLA,,,2,,,Tesla Destination,200-8,40.715074,-73.986927,5/9/19,115035
ELEC,iPark 59-63 Allen Street - Tesla Destination,59-63 Allen St,,New York,NY,10002,New York,TESLA,,,2,,,Tesla Destination,200-9,40.717124,-73.99201,5/9/19,115166
ELEC,59 Allen Street - Tesla Supercharger,59 Allen Street,,New York,NY,10002,New York,TESLA,,,,4,,Tesla,GPS,40.717119,-73.99168,5/9/19,116808
ELEC,CARCHARGING,445 Lafayette St,ASTOR PLACE 1; See valet attendant to use charging station ASTOR PLACE 2; See Valet attendant to use charging station.,New York,NY,10003,New York,J1772,,,2,,,ChargePoint Network,200-9,40.729535,-73.991398,6/12/19,53120
ELEC,Icon Parking 12 East 9th Street - Tesla Destination,12 E 9th St,,New York,NY,10003,New York,TESLA,,,2,,,Tesla Destination,200-8,40.732324,-73.99517,5/9/19,115005
ELEC,GGMC Parking Stewart House Garage - Tesla Destination,91 East 9th St,,New York,NY,10003,New York,TESLA,,,2,,,Tesla Destination,200-8,40.73099,-73.990963,5/9/19,115194
ELEC,Icon Parking University 10 Parking - Tesla Destination,63 E 9th St,,New York,NY,10003,New York,TESLA,,,2,,,Tesla Destination,200-9,40.731544,-73.992045,5/9/19,115177
ELEC,Parkit 403 Lafayette St. - Tesla Destination,403 Lafayette St,,New York,NY,10003,New York,TESLA,,,2,,,Tesla Destination,200-9,40.728137,-73.992393,5/9/19,115124
ELEC,Champion Parking E 16th Street - Tesla Destination,101 E 16th St,,New York,NY,10003,New York,TESLA,,,2,,,Tesla Destination,200-8,40.736116,-73.989322,5/9/19,114991
ELEC,Icon Parking 11 5th Ave - Tesla Destination,11 5th Ave,,New York,NY,10003,New York,TESLA,,,2,,,Tesla Destination,200-8,40.732257,-73.99608,5/9/19,114998
ELEC,Standard Parking 21 East 15th Street - Tesla Destination,21 E 15th St,,New York,NY,10003,New York,TESLA,,,2,,,Tesla Destination,200-8,40.73644,-73.992027,5/9/19,115050
ELEC,Champion Parking 60 E 8th - Tesla Destination,60-68 E 8th St,,New York,NY,10003,New York,TESLA,,,2,,,Tesla Destination,200-9,40.730501,-73.993075,5/9/19,115172
ELEC,Parkit 310 E 11th Street - Tesla Destination,310 E 11th St,,New York,NY,10003,New York,TESLA,,,2,,,Tesla Destination,200-9,40.729871,-73.98568,5/9/19,115089
ELEC,Astor Place,445 Lafayette St,,New York,NY,10003,New York,J1772,,,2,,,Blink Network,GPS,40.7297,-73.991565,7/31/19,124144
ELEC,GGMC Parking Union Square Parking Garage - Tesla Destination,100 E 15th St,,New York,NY,10003,New York,TESLA,,,4,,,Tesla Destination,200-8,40.734817,-73.989198,5/9/19,114988
ELEC,Icon Parking 14-26 William Street - Tesla Destination,14-26 William St,,New York,NY,10004,New York,TESLA,,,2,,,Tesla Destination,200-8,40.704976,-74.009682,5/9/19,115014
ELEC,Andaz Wall Street - Tesla Destination,75 Wall St,,New York,NY,10005,New York,TESLA,,,1,,,Tesla Destination,200-9,40.705042,-74.008118,5/9/19,122490
ELEC,Icon Parking Wall Park - Tesla Destination,39 Exchange Pl,,New York,NY,10005,New York,TESLA,,,2,,,Tesla Destination,200-8,40.706109,-74.010148,5/9/19,115116
ELEC,iPark NYC 75 Wall Street - Tesla Destination,75 Wall St,,New York,NY,10005,New York,TESLA,,,2,,,Tesla Destination,200-9,40.705042,-74.008118,5/9/19,122491
ELEC,BEAM CHARGING,75 Park Place,"75 PARK PLACE; Enter parking garage by West Broadway, between Murray St and Park Place. See valet attendant to use charging station.",New York,NY,10007,New York,J1772,,,2,,,ChargePoint Network,GPS,40.7142163,-74.0106122,6/12/19,53121
ELEC,SP+ - 200 Chambers Street Garage,200 Chambers Street,,New York,NY,10007,New York,J1772,,,2,,,Blink Network,GPS,40.7163,-74.01258,7/31/19,96507
ELEC,Icon Parking 54 Murray Street - Tesla Destination,54 Murray St,,New York,NY,10007,New York,TESLA,,,2,,,Tesla Destination,200-9,40.714121,-74.009808,5/9/19,115154
ELEC,75 Park Place,75 Park Place,,New York,NY,10007,New York,J1772,,,1,,,Blink Network,GPS,40.714463,-74.01098,7/31/19,124060
ELEC,Central Parking 200 Chambers - Tesla Destination,200 Chambers St,,New York,NY,10007,New York,TESLA,,,2,,,Tesla Destination,200-9,40.716579,-74.012393,5/9/19,115038
ELEC,Standard Parking 270 Greenwich - Tesla Destination,270 Greenwich St,,New York,NY,10007,New York,TESLA,,,2,,,Tesla Destination,200-9,40.715543,-74.011435,5/9/19,115076
ELEC,Spectrum,769 5th Ave,,Brooklyn,NY,10010,New York,J1772,,,2,,,EV Connect,200-8,40.657846,-73.996791,5/3/18,94833
ELEC,ALBANESE ORG,77 W 24th St,NS1-77 W24TH ST,New York,NY,10010,New York,J1772,,,2,,,ChargePoint Network,GPS,40.7435617,-73.9918929,6/12/19,77134
ELEC,Icon Parking 5 E 22nd Street - Tesla Destination,5 E 22nd St,,New York,NY,10010,New York,TESLA,,,2,,,Tesla Destination,200-9,40.740794,-73.988885,5/9/19,115142
ELEC,Icon Parking 245 E 19th St. - Tesla Destination,245 E 19th St,,New York,NY,10010,New York,TESLA,,,2,,,Tesla Destination,200-8,40.73591,-73.983331,5/9/19,115064
ELEC,Icon Parking 322 23rd Street - Tesla Destination,318-322 E 23rd St,,New York,NY,10010,New York,TESLA,,,2,,,Tesla Destination,200-8,40.737362,-73.980167,5/9/19,115092
ELEC,Icon Parking 40 W 26th Street - Tesla Destination,40 W 26th St,,New York,NY,10010,New York,TESLA,,,2,,,Tesla Destination,200-8,40.743961,-73.989912,5/9/19,115119
ELEC,Icon Parking 51 W 22nd - Tesla Destination,51 W 22nd St,,New York,NY,10010,New York,TESLA,,,2,,,Tesla Destination,200-9,40.742197,-73.992168,5/9/19,115147
ELEC,Icon Parking 101 W 15th - Tesla Destination,101 W 15th St,,New York,NY,10011,New York,TESLA,,,4,,,Tesla Destination,200-8,40.738352,-73.996519,5/9/19,114992
ELEC,BEAM CHARGING,107 W 13th St,107 W 13TH ST; See valet attendant for instructions  on using the charging stations.,New York,NY,10011,New York,J1772,,,2,,,ChargePoint Network,GPS,40.736949,-73.9977963,6/12/19,51680
ELEC,The Westminster,180 W 20th Street,,New York,NY,10011,New York,J1772,,,1,,,Blink Network,GPS,40.741945,-73.996664,7/31/19,95502
ELEC,The Caledonia,450 W 17th Street,Chargers located on Level 1 ,New York,NY,10011,New York,J1772,,,2,,,Blink Network,GPS,40.743832,-74.006578,7/31/19,95252
ELEC,Quikpark 173 W 12th Street - Tesla Destination,173 W 12th St,,New York,NY,10011,New York,TESLA,,,2,,,Tesla Destination,200-8,40.7372,-74.00007,5/9/19,115032
ELEC,Icon Parking 111 8th Ave Parking - Tesla Destination,385 W 15th St,,New York,NY,10011,New York,TESLA,,,4,,,Tesla Destination,200-8,40.741669,-74.004397,5/9/19,115114
ELEC,Quik Park West 23rd Street Garage LLC - Tesla Destination,423-431 W 23rd St,,New York,NY,10011,New York,TESLA,,,2,,,Tesla Destination,200-8,40.746762,-74.001428,5/9/19,115133
ELEC,Standard Parking 151 W 17th Street - Tesla Destination,151 W 17th St,,New York,NY,10011,New York,TESLA,,,2,,,Tesla Destination,200-9,40.740728,-73.997493,5/9/19,115021
ELEC,Icon Parking 16 W 16th Street - Tesla Destination,16 W 16th St,,New York,NY,10011,New York,TESLA,,,2,,,Tesla Destination,200-8,40.737595,-73.993837,5/9/19,115026
ELEC,Rapidpark 124 W 20th Street - Tesla Destination,124 W 20th St,,New York,NY,10011,New York,TESLA,,,2,,,Tesla Destination,200-9,40.741371,-73.995533,5/9/19,115008
ELEC,iPark NYC 250 West Parking - Tesla Destination,250 W 19th St,,New York,NY,10011,New York,TESLA,,,2,,,Tesla Destination,200-8,40.742179,-73.999226,5/9/19,115068
ELEC,Icon Parking 55 W 14th Street - Tesla Destination,55 W 14th St,,New York,NY,10011,New York,TESLA,,,2,,,Tesla Destination,200-9,40.737266,-73.99611,5/9/19,115159
ELEC,Standard Parking 20 W 13th Street - Tesla Destination,20 W 13th St,,New York,NY,10011,New York,TESLA,,,2,,,Tesla Destination,200-8,40.735594,-73.995291,5/9/19,115037
ELEC,iPark 10 West 15th - Tesla Destination,10 W 15th,,New York,NY,10011,New York,TESLA,,,2,,,Tesla Destination,200-8,40.736754,-73.993789,5/9/19,114986
ELEC,iPark 107 West 13th Street - Tesla Destination,107 W 13th St,,New York,NY,10011,New York,TESLA,,,2,,,Tesla Destination,200-9,40.737094,-73.997754,5/9/19,114997
ELEC,iPark NYC 549 W 23rd Street - Tesla Destination,549 W 23rd St,,New York,NY,10011,New York,TESLA,,,2,,,Tesla Destination,200-9,40.748931,-74.006078,5/9/19,115158
ELEC,Icon Parking - 111 Eighth Avenue,111 Eighth Avenue,Entrance on 385 W 15th St or 386 W 16th  St. ,New York,NY,10011,New York,J1772,,,1,,,Blink Network,GPS,40.741421,-74.003186,7/31/19,117534
ELEC,New York University - Plaza Nursery School,110 Bleecker St,,New York,NY,10011,New York,J1772,,,2,,,EV Connect,GPS,40.7273617,-73.9975332,6/6/19,123058
ELEC,BEAM CHARGING,122 W 3rd St,MINETTA GARAGE; See valet attendant for instructions on how to use the charging station.,New York,NY,10012,New York,J1772,,,2,,,ChargePoint Network,GPS,40.730485,-74.000728,6/12/19,51686
ELEC,Parkit 221 Thompson Street - Tesla Destination,221 Thompson St,,New York,NY,10012,New York,TESLA,,,2,,,Tesla Destination,200-9,40.729372,-73.999217,5/9/19,115056
ELEC,Parkright 169 Ludlow Street - Tesla Destination,169 Ludlow St,,New York,NY,10012,New York,TESLA,,,2,,,Tesla Destination,200-9,40.721724,-73.987776,5/9/19,115029
ELEC,Icon Parking - Patriot Parking,376 Greenwich Street,,New York,NY,10013,New York,J1772,,,1,,,Blink Network,GPS,40.719772,-74.010475,7/31/19,95078
ELEC,Parkit 10 Wooster St. - Tesla Destination,6-10 Wooster St,,New York,NY,10013,New York,TESLA,,,2,,,Tesla Destination,200-9,40.721131,-74.00357,5/9/19,115174
ELEC,iPark NYC 44 Elizabeth Street - Tesla Destination,44 Elizabeth St,,New York,NY,10013,New York,TESLA,,,2,,,Tesla Destination,200-9,40.716947,-73.996472,5/9/19,115138
ELEC,Quik Park 311 West Broadway LLC - Tesla Destination,311 W Broadway,,New York,NY,10013,New York,TESLA,,,2,,,Tesla Destination,200-9,40.721638,-74.003781,5/9/19,115091
ELEC,Parkit 27 N Moore Street - Tesla Destination,27 N Moore St,,New York,NY,10013,New York,TESLA,,,2,,,Tesla Destination,200-9,40.720215,-74.007465,5/9/19,115074
ELEC,Mott Street Parking - Tesla Supercharger,106 Mott Street,,New York,NY,10013,New York,TESLA,,,,2,,Tesla,200-9,40.717508,-73.99714,5/9/19,102334
ELEC,Icon 376 Greenwich Street - Tesla Destination,376 Greenwich St,,New York,NY,10013,New York,TESLA,,,2,,,Tesla Destination,200-8,40.719814,-74.010394,5/9/19,115112
ELEC,Icon Parking 308 Greenwich - Tesla Destination,308 Greenwich St,,New York,NY,10013,New York,TESLA,,,2,,,Tesla Destination,200-9,40.717568,-74.011042,5/9/19,115088
ELEC,Quik Park 32 Debrosses LLC - Tesla Destination,32 Debrosses St,,New York,NY,10013,New York,TESLA,,,2,,,Tesla Destination,200-8,40.723702,-74.010335,5/9/19,115093
ELEC,MPG 121 Reade Street - Tesla Destination,121 Reade St,,New York,NY,10013,New York,TESLA,,,2,,,Tesla Destination,200-9,40.716208,-74.009488,5/9/19,115006
ELEC,CARCHARGING,400 W 12th St,SUPERIOR INK 1; See valet attendant to use charging station.,New York,NY,10014,New York,J1772,,,1,,,ChargePoint Network,200-9,40.73738,-74.0093738,6/12/19,53449
ELEC,BEAM CHARGING,375 Hudson St,375 HUDSON PKNG; Mounted to wall directly in front of manager office,Manhattan,NY,10014,New York,J1772 ,,1,1,,,ChargePoint Network,GPS,40.7284126,-74.0073318,6/12/19,42193
ELEC,iPark NYC 61 Jane Street - Tesla Destination,61 Jane St,,New York,NY,10014,New York,TESLA,,,2,,,Tesla Destination,200-9,40.738222,-74.005908,5/9/19,115173
ELEC,Superior Ink,400 W 12th St,,New York,NY,10014,New York,J1772,,,2,,,Blink Network,GPS,40.737537,-74.00983,7/31/19,124147
ELEC,Parkit 575 Washington - Tesla Destination,575 Washington St,,New York,NY,10014,New York,TESLA,,,4,,,Tesla Destination,200-9,40.729474,-74.008847,5/9/19,115164
ELEC,Apple Parking 332 W 11th Street - Tesla Destination,332 W 11th St,,New York,NY,10014,New York,TESLA,,,3,,,Tesla Destination,200-9,40.735404,-74.007717,5/9/19,115100
ELEC,Parkright 738 Greenwich Street - Tesla Destination,738 Greenwich St,,New York,NY,10014,New York,TESLA,,,2,,,Tesla Destination,200-9,40.735165,-74.007231,5/9/19,115182
ELEC,"The Standard, High Line - Tesla Destination",848 Washington St,,New York,NY,10014,New York,TESLA,,,2,,,Tesla Destination,200-9,40.740828,-74.008074,5/9/19,115189
ELEC,iPark NYC E 77th Street - Tesla Destination,165 E 77th St,,New York,NY,10014,New York,TESLA,,,2,,,Tesla Destination,200-8,40.77364,-73.959302,5/9/19,115028
ELEC,Icon Parking 150 Charles Street - Tesla Destination,150 Charles St,,New York,NY,10014,New York,TESLA,,,2,,,Tesla Destination,200-9,40.733633,-74.009239,5/9/19,115018
ELEC,COHEN BROTHERS,475 Park Ave S,475 PARK AVE S; -,New York,NY,10016,New York,J1772,,,1,,,ChargePoint Network,GPS,40.7453718,-73.9821073,6/12/19,79843
ELEC,Imperial Garage - 340 East 34th St - Station 2,342  E 34th St,,New York,NY,10016,New York,J1772,,,1,,,GE WattStation,GPS,40.7440113,-73.9741155,7/31/19,73118
ELEC,Imperial Garage - 340 East 34th St - Station 1,342  E 34th St,,New York,NY,10016,New York,J1772,,,1,,,GE WattStation,GPS,40.7440113,-73.9741155,7/31/19,72817
ELEC,CARCHARGING,350 E 30th St,CENTRAL PKG #2; See valet attendant to charge your vehicle.,New York,NY,10016,New York,J1772 ,,1,1,,,ChargePoint Network,GPS,40.741368,-73.975668,6/12/19,56142
ELEC,iPark NYC 333 E 38th NYU - Tesla Destination,333 E 38th St,,New York,NY,10016,New York,TESLA,,,2,,,Tesla Destination,200-8,40.746891,-73.972547,5/9/19,115101
ELEC,Rapidpark 10 E 30th Street - Tesla Destination,10 E 30th St,,New York,NY,10016,New York,TESLA,,,2,,,Tesla Destination,200-9,40.745384,-73.985704,5/9/19,114984
ELEC,Central Parking,350 E 30th Street,,New York,NY,10016,New York,J1772,,,1,,,Blink Network,GPS,40.741065,-73.975788,7/31/19,124143
ELEC,Rapidpark 148 E 33rd Street - Tesla Destination,148 E 33rd St,,New York,NY,10016,New York,TESLA,,,2,,,Tesla Destination,200-9,40.745236,-73.979736,5/9/19,115016
ELEC,iPark NYU 377 E 33rd Street - Tesla Destination,377 E 33rd St,,New York,NY,10016,New York,TESLA,,,2,,,Tesla Destination,200-9,40.743382,-73.974251,5/9/19,115113
ELEC,GGMC Parking 8 E 33rd St Garage - Tesla Destination,325 East 5th Ave,,New York,NY,10016,New York,TESLA,,,2,,,Tesla Destination,200-9,40.74733,-73.984857,5/9/19,115096
ELEC,Icon Parking 155 E 29th Street - Tesla Destination,155 E 29th St,,New York,NY,10016,New York,TESLA,,,2,,,Tesla Destination,200-9,40.742968,-73.980565,5/9/19,115022
ELEC,Rapidpark 575 1st Avenue - Tesla Destination,575 1st Ave,,New York,NY,10016,New York,TESLA,,,2,,,Tesla Destination,200-8,40.742761,-73.974554,5/9/19,115163
ELEC,Rapidpark 99 Park Ave - Tesla Destination,105 E 39th,,New York,NY,10016,New York,TESLA,,,2,,,Tesla Destination,200-8,40.750254,-73.978627,5/9/19,114996
ELEC,City Parking Garment One Garage - Tesla Destination,155 E 34th St,,New York,NY,10016,New York,TESLA,,,2,,,Tesla Destination,200-9,40.7462,-73.978528,5/9/19,115023
ELEC,iPark NYC 400 E 35th NYU - Tesla Destination,400 E 35th St,,New York,NY,10016,New York,TESLA,,,2,,,Tesla Destination,200-8,40.744093,-73.972689,5/9/19,115120
ELEC,Icon 9-11 Park Ave - Tesla Destination,9 - 11 Park Ave,,New York,NY,10016,New York,TESLA,,,2,,,Tesla Destination,200-9,40.747207,-73.980743,5/9/19,115191
ELEC,Icon Parking 560 Third Ave - Tesla Destination,560 3rd Ave,,New York,NY,10016,New York,TESLA,,,2,,,Tesla Destination,200-9,40.748094,-73.976864,5/9/19,115162
ELEC,ABM Parking 475 Park Ave South LLC - Tesla Destination,104 E 32nd St,,New York,NY,10016,New York,TESLA,,,2,,,Tesla Destination,200-8,40.745497,-73.98208,5/9/19,114995
ELEC,Icon Parking 330 E 39th Street - Tesla Destination,330 E 39th St,,New York,NY,10016,New York,TESLA,,,2,,,Tesla Destination,200-9,40.747123,-73.972257,5/9/19,115098
ELEC,Icon Parking 200 E 32nd Street - Tesla Destination,200 E 32nd St,,New York,NY,10016,New York,TESLA,,,2,,,Tesla Destination,200-9,40.744029,-73.978952,5/9/19,115039
ELEC,Parkright 39 E 29th Street - Tesla Destination,29 East 29th St,,New York,NY,10016,New York,TESLA,,,2,,,Tesla Destination,200-8,40.744551,-73.984535,5/9/19,115079
ELEC,Icon Liberty View Parking - Tesla Destination,400 Murray St,,New York,NY,10016,New York,TESLA,,,2,,,Tesla Destination,GPS,40.716079,-74.015929,5/9/19,115121
ELEC,ABM Parking 866 UN Plaza - Tesla Destination,430 E 49th St,,New York,NY,10017,New York,TESLA,,,2,,,Tesla Destination,200-8,40.752516,-73.965347,5/9/19,115136
ELEC,Icon Parking E 48th Street - Tesla Destination,329 E 48th St,,New York,NY,10017,New York,TESLA,,,2,,,Tesla Destination,200-8,40.75323,-73.96799,5/9/19,115097
ELEC,Roger Smith Hotel - Tesla Destination,501 Lexington Ave,,New York,NY,10017,New York,TESLA,,,1,,,Tesla Destination,200-9,40.754735,-73.973361,5/9/19,115146
ELEC,GGMC Parking Seven Eleven (Located at 217 E 44th St) - Tesla Destination,217 E 44th St,,New York,NY,10017,New York,TESLA,,,2,,,Tesla Destination,200-8,40.752004,-73.972808,5/9/19,115053
ELEC,iPark NYC 246 E 45 Street - Tesla Destination,246 E 45th St,,New York,NY,10017,New York,TESLA,,,2,,,Tesla Destination,200-8,40.751676,-73.971144,5/9/19,115067
ELEC,E 47th Street - Tesla Supercharger,212 East 47th Street,,New York,NY,10017,New York,TESLA,,,,4,,Tesla,200-9,40.753271,-73.971657,5/9/19,102336
ELEC,EDISONPARKFAST,451 Ninth Ave,LOC #250 #2,New York,NY,10018,New York,J1772,,,1,,,ChargePoint Network,200-9,40.7546106,-73.9959708,6/12/19,36945
ELEC,Port Authority Bus Terminal,625 8th Ave,,New York,NY,10018,New York,J1772,,,2,,,EV Connect,200-8,40.756177,-73.990558,5/9/19,65287
ELEC,GLENWOOD MGMT,330 West 39th Street,"CRYSTAL GREEN; Located in the Crystal Green garage, see valet attendant for access",New York,NY,10018,New York,J1772,,,2,,,ChargePoint Network,GPS,40.7560286,-73.9926549,6/12/19,53123
ELEC,Icon Parking 990 Ave of the Americas - Tesla Destination,990 Avenue of the Americas,,New York,NY,10018,New York,TESLA,,,2,,,Tesla Destination,200-9,40.751363,-73.986389,5/9/19,115198
ELEC,Roosevelt Hospital Garage,515 W 59th St,,New York,NY,10019,New York,J1772,,1,1,,,,200-8,40.77079,-73.988508,6/5/18,43745
ELEC,Central Parking - 146 W 57th St - Station 1,146  W 57th St,,New York,NY,10019,New York,J1772,,,1,,,GE WattStation,GPS,40.764609,-73.979512,7/31/19,72968
ELEC,GMC - 200 CENTRAL PARK SOUTH- STATION 2,200  Central Park S,,New York,NY,10019,New York,J1772,,,1,,,GE WattStation,GPS,40.7667193,-73.9795327,7/31/19,72911
ELEC,CARCHARGING,225 W 49th St,"GMC 225 W 49 #1; To use charging station, please see valet attendant.",New York,NY,10019,New York,J1772,,,1,,,ChargePoint Network,200-9,40.761376,-73.985273,6/12/19,56059
ELEC,Central Parking - 58 West 58th St- Station 2,58  W 58th St,,New York,NY,10019,New York,J1772,,,1,,,GE WattStation,GPS,40.7646555,-73.97610053,7/31/19,72895
ELEC,Central Parking - 58 West 58th St- Station 1,58  W 58th St,,New York,NY,10019,New York,J1772,,,1,,,GE WattStation,GPS,40.764623,-73.976181,7/31/19,72914
ELEC,CARCHARGING,500 W 56th St,THE WESTPORT #2; See Valet Attendant for instructions THE WESTPORT; See Valet attendant for inistructions,New York,NY,10019,New York,J1772 ,,1,2,,,ChargePoint Network,200-8,40.768257,-73.989087,6/12/19,48688
ELEC,BMW MANHATTAN,601-605 W 55th St,CHAPMAN STAT01; -,New York,NY,10019,New York,J1772,,,2,,,ChargePoint Network,GPS,40.7692913,-73.9925407,6/12/19,72470
ELEC,Central Parking - 146 W 57th St - Station 2,146  W 57th St,,New York,NY,10019,New York,J1772,,,1,,,GE WattStation,GPS,40.764609,-73.979542,7/31/19,72915
ELEC,Imperial Garage - 300 W 55th St- Station 1,300  W 55th St,,New York,NY,10019,New York,J1772,,,1,,,GE WattStation,GPS,40.765153,-73.98434731,7/31/19,73020
ELEC,BMW MANHATTAN,555 W 57th St,FAST CHARGER 01; 2nd Floor Garage,New York,NY,10019,New York,J1772COMBO,,,,1,,ChargePoint Network,GPS,40.7704109,-73.9906549,6/12/19,72472
ELEC,GMC - 200 CENTRAL PARK SOUTH- STATION 1,200  Central Park S,,New York,NY,10019,New York,J1772,,,1,,,GE WattStation,GPS,40.7667193,-73.9795827,7/31/19,73059
ELEC,Coliseum Park Apts - Central Parking - Station 1,345  W 58th St,,New York,NY,10019,New York,J1772,,,1,,,GE WattStation,GPS,40.768946,-73.98412,7/31/19,73030
ELEC,BEAM CHARGING,10 Columbus Cir,"TIME WARNER CTR; Main level, center of garage behind pillar",Manhattan,NY,10019,New York,J1772 ,,1,1,,,ChargePoint Network,GPS,40.7687836,-73.9831467,6/12/19,43743
ELEC,CENTRAL PARKING - STATION 2,345  W 58th St,,New York,NY,10019,New York,J1772,,,1,,,GE WattStation,GPS,40.768946,-73.98415,7/31/19,72950
ELEC,Imperial Garage - 300 W 55th St- Station 2,300  W 55th St,,New York,NY,10019,New York,J1772,,,1,,,GE WattStation,GPS,40.765153,-73.984122,7/31/19,72982
ELEC,CARCHARGING,250 E 53rd St,THE VENETO 2; See valet attendant to use the charging station.,New York,NY,10019,New York,J1772,,,1,,,ChargePoint Network,GPS,40.7568399,-73.9675916,6/12/19,56096
ELEC,Central Parking - 58 West 58th St,58 West 58th Street,,New York,NY,10019,New York,J1772,,,2,,,Blink Network,GPS,40.764655,-73.9761,7/31/19,124146
ELEC,Standard Parking 58 W 58th Street - Tesla Destination,58 W 58th St,,New York,NY,10019,New York,TESLA,,,2,,,Tesla Destination,200-9,40.764459,-73.976349,5/9/19,115165
ELEC,Champion Parking W 53rd Street - Tesla Destination,159 W 53rd St,,New York,NY,10019,New York,TESLA,,,2,,,Tesla Destination,200-9,40.763,-73.981278,5/9/19,115025
ELEC,The Westport,500 W 56th St,,New York,NY,10019,New York,J1772,,,2,,,Blink Network,GPS,40.768211,-73.989479,7/31/19,124690
ELEC,Icon Parking 1350 Avenue of the Americas - Tesla Destination,1350 6th Ave,,New York,NY,10019,New York,TESLA,,,2,,,Tesla Destination,200-9,40.762653,-73.977846,5/9/19,115013
ELEC,Time Warner Center,10 Columbus Circle,,Manhattan,NY,10019,New York,J1772,,,1,,,Blink Network,GPS,40.768483,-73.981634,7/31/19,124138
ELEC,ABM Parking Services 285 W 50th Street LLC - Tesla Destination,285 W 50th St,,New York,NY,10019,New York,TESLA,,,2,,,Tesla Destination,200-8,40.762337,-73.985727,5/9/19,115078
ELEC,Icon Parking 810 Seventh Ave - Tesla Destination,207 W 52nd St,,New York,NY,10019,New York,TESLA,,,2,,,Tesla Destination,200-8,40.762891,-73.983151,5/9/19,115049
ELEC,Quik Park Broadway Garage LLC - Tesla Destination,225-251 W 56th St,,New York,NY,10019,New York,TESLA,,,2,,,Tesla Destination,200-8,40.765735,-73.982101,5/9/19,115059
ELEC,The Peninsula Hotel New York - Tesla Destination,700 5th Ave,,New York,NY,10019,New York,TESLA,,,1,,,Tesla Destination,200-8,40.76178,-73.975057,5/9/19,115181
ELEC,Residence Inn New York Manhattan/Central Park - Tesla Destination,1717 Broadway,,New York,NY,10019,New York,TESLA,,,1,,,Tesla Destination,200-9,40.764369,-73.982707,5/9/19,115031
ELEC,Coliseum Park Apts - Central Parking,345 W 58th Street,Entrance on 910 9th Ave. ,New York,NY,10019,New York,J1772,,,2,,,Blink Network,GPS,40.768432,-73.984033,7/31/19,124141
ELEC,MTP 625 W 57th Street - Tesla Destination,625 W 57th St,,New York,NY,10019,New York,TESLA,,,3,,,Tesla Destination,200-9,40.771431,-73.992964,5/9/19,115176
ELEC,Quik Park West 57 LLC - Tesla Destination,9 W 57th St,,New York,NY,10019,New York,TESLA,,,2,,,Tesla Destination,200-9,40.763888,-73.97499,5/9/19,115193
ELEC,New York Hilton Midtown - Tesla Destination,1335 Avenue of the Americas,,New York,NY,10019,New York,TESLA,,,2,,,Tesla Destination,200-9,40.762445,-73.97971,5/9/19,115011
ELEC,Icon Parking 330 W 58th Street - Tesla Destination,330 W 58th St,,New York,NY,10019,New York,TESLA,,,2,,,Tesla Destination,200-8,40.767725,-73.983646,5/9/19,115099
ELEC,Peninsula New York,700 5th Avenue,,New York,NY,10019,New York,J1772,,,1,,,SemaCharge Network,GPS,40.7616221,-73.9754656,7/31/19,118263
ELEC,"MTP Parking, The Helena - Tesla Destination",601 W 57th St,,New York,NY,10019,New York,TESLA,,,2,,,Tesla Destination,200-9,40.770771,-73.991789,5/9/19,115171
ELEC,Champion Parking W 57th Street - Tesla Destination,320 W 57th St,,New York,NY,10019,New York,TESLA,,,2,,,Tesla Destination,200-9,40.767194,-73.984544,5/9/19,115095
ELEC,Champion Parking 230 W 55th Street - Tesla Destination,230 W 55th St,,New York,NY,10019,New York,TESLA,,,2,,,Tesla Destination,200-9,40.764693,-73.982708,5/9/19,115061
ELEC,Rapidpark 411 W 55th Street - Tesla Destination,411 W 55th St,,New York,NY,10019,New York,TESLA,,,2,,,Tesla Destination,200-9,40.767111,-73.987232,5/9/19,115126
ELEC,Icon Parking Independent - Tesla Destination,417 E 71st St,,New York,NY,10021,New York,TESLA,,,2,,,Tesla Destination,200-8,40.766976,-73.955645,5/9/19,115129
ELEC,Icon Parking 200 E 65th Street - Tesla Destination,200 E 65th St,,New York,NY,10021,New York,TESLA,,,2,,,Tesla Destination,200-9,40.764777,-73.963555,5/9/19,115040
ELEC,MPG 266 E 97 St - Tesla Destination,266 E 97th St,,New York,NY,10021,New York,TESLA,,,2,,,Tesla Destination,200-8,40.784771,-73.946728,5/9/19,115073
ELEC,MPG 100 Jay Street - Tesla Destination,100 Jay St,,Brooklyn,NY,10021,New York,TESLA,,,2,,,Tesla Destination,200-9,40.702004,-73.987053,5/9/19,114917
ELEC,Rapidpark 35 E 75th Street - Tesla Destination,35 E 75th St,,New York,NY,10021,New York,TESLA,,,2,,,Tesla Destination,200-8,40.773815,-73.963696,5/9/19,115106
ELEC,Icon Parking 524 East 73rd - Tesla Destination,524 E 73rd St,,New York,NY,10021,New York,TESLA,,,2,,,Tesla Destination,200-9,40.766741,-73.95193,5/9/19,115149
ELEC,GGMC Parking 51-53 E 76th St Carlyle Hotel - Tesla Destination,53 E 76th St,,New York,NY,10021,New York,TESLA,,,1,,,Tesla Destination,200-8,40.774265,-73.96278,5/9/19,115150
ELEC,Rapidpark 150 East 77th Street - Tesla Destination,150 E 77th St,,New York,NY,10021,New York,TESLA,,,2,,,Tesla Destination,200-8,40.773472,-73.95992,5/9/19,115020
ELEC,iPark 200 E 70th Street - Tesla Destination,200 E 70th St,,New York,NY,10021,New York,TESLA,,,2,,,Tesla Destination,200-8,40.768244,-73.961621,5/9/19,115042
ELEC,Icon Parking E 72nd Street - Tesla Destination,515 E 72nd St,,New York,NY,10021,New York,TESLA,,,2,,,Tesla Destination,200-9,40.766857,-73.952647,5/9/19,115148
ELEC,"The Carlyle Hotel, A Rosewood Hotel - Tesla Destination",35 E 76th St,,New York,NY,10021,New York,TESLA,,,1,,,Tesla Destination,200-9,40.774308,-73.963182,5/9/19,115107
ELEC,iPark NYC 183 E 73rd Street - Tesla Destination,184 E 73rd St,,New York,NY,10021,New York,TESLA,,,2,,,Tesla Destination,200-8,40.770442,-73.960649,5/9/19,115034
ELEC,Chelnik Parking NYC 880 5th - Tesla Destination,880 5th Ave,,New York,NY,10021,New York,TESLA,,,2,,,Tesla Destination,200-8,40.770385,-73.968296,5/9/19,115190
ELEC,GGMC Parking E 74th Street - Tesla Destination,300 E 74th St,,New York,NY,10021,New York,TESLA,,,2,,,Tesla Destination,200-8,40.769925,-73.957476,5/9/19,115084
ELEC,Icon Parking 203 E 61 Street - Tesla Destination,203 E 61 St,,New York,NY,10021,New York,TESLA,,,2,,,Tesla Destination,200-8,40.762948,-73.965513,5/9/19,115046
ELEC,MPG 923 5th Ave - Tesla Destination,923 5th Ave,,New York,NY,10021,New York,TESLA,,,2,,,Tesla Destination,200-9,40.773173,-73.966026,5/9/19,115196
ELEC,Glenwood Belmont Parking - Tesla Destination,320 E 46th St,,New York,NY,10021,New York,TESLA,,,1,,,Tesla Destination,200-8,40.751784,-73.969463,5/9/19,115094
ELEC,Icon Parking 35-39 East 61st Street - Tesla Destination,35-39 E 61st St,,New York,NY,10021,New York,TESLA,,,2,,,Tesla Destination,200-8,40.764876,-73.970102,5/9/19,115111
ELEC,MPG 201 E 56th - Tesla Destination,201 E 56th,,New York,NY,10022,New York,TESLA,,,2,,,Tesla Destination,200-8,40.759764,-73.967956,5/9/19,115045
ELEC,Central Parking - 154 E 53rd St- Station 1,154  E 53rd St,,New York,NY,10022,New York,J1772,,,1,,,GE WattStation,GPS,40.75790859,-73.97065515,7/31/19,72965
ELEC,GLENWOOD MGMT,300 E 56th St,BRISTOL GARAGE,New York,NY,10022,New York,J1772,,,2,,,ChargePoint Network,GPS,40.7581527,-73.9653023,6/12/19,51296
ELEC,Central Parking - 154 E 53rd St- Station 2,154  E 53rd St,,New York,NY,10022,New York,J1772,,,1,,,GE WattStation,GPS,40.757807,-73.970226,7/31/19,72904
ELEC,COHEN BROTHERS,3 E 54th St,E 54TH ST 01; -,New York,NY,10022,New York,J1772,,,1,,,ChargePoint Network,GPS,40.7609595,-73.9746494,6/12/19,82318
ELEC,COHEN BROTHERS,750 Lexington Ave,750 LEXINGTON; -,New York,NY,10022,New York,J1772,,,1,,,ChargePoint Network,GPS,40.7628984,-73.9683267,6/12/19,82314
ELEC,Waldorf Astoria New York - Tesla Destination,310 Park Ave,,New York,NY,10022,New York,TESLA,,,2,,,Tesla Destination,200-8,40.757047,-73.974455,5/9/19,115090
ELEC,GGMC Parking Connaught - Tesla Destination,300 E 54th St,,New York,NY,10022,New York,TESLA,,,2,,,Tesla Destination,200-9,40.756956,-73.966399,5/9/19,115082
ELEC,GMC - BEEKMAN 2,420 E 51st St,Located between 1st Ave & FDR. -  Attendant will assist in charging  vehicle.  Parking rates apply. Inquire  within ,New York,NY,10022,New York,J1772,,,1,,,Blink Network,GPS,40.754022,-73.965166,7/31/19,118347
ELEC,ABM Parking 750 Lexington Ave LLC - Tesla Destination,118 E 60th St,,New York,NY,10022,New York,TESLA,,,3,,,Tesla Destination,200-9,40.762806,-73.9687,5/9/19,115004
ELEC,Icon Parking 301 E 57 Street - Tesla Destination,301 E 57th St,,New York,NY,10022,New York,TESLA,,,2,,,Tesla Destination,200-8,40.759484,-73.965206,5/9/19,115086
ELEC,919 Third Avenue,919 3rd Avenue,Located between 2nd & 3rd Ave ,Manhattan,NY,10022,New York,J1772,,,1,,,Blink Network,GPS,40.759299,-73.968603,7/31/19,124692
ELEC,Icon Parking Sutton 53 - Tesla Destination,417 E 53rd St,,New York,NY,10022,New York,TESLA,,,2,,,Tesla Destination,200-8,40.755371,-73.963368,5/9/19,115128
ELEC,iPark NYC 425 E 58th Street - Tesla Destination,425 E 58th St,,New York,NY,10022,New York,TESLA,,,2,,,Tesla Destination,200-8,40.758766,-73.961406,5/9/19,115134
ELEC,Sutton Place North Garage - Tesla Destination,420 E 54th St,,New York,NY,10022,New York,TESLA,,,2,,,Tesla Destination,200-9,40.755679,-73.963528,5/9/19,115131
ELEC,The Veneto,250 East 53rd Street,,New York,NY,10022,New York,J1772,,,1,,,Blink Network,GPS,40.756766,-73.967481,7/31/19,124140
ELEC,GMC Parking 420 E 53rd - Tesla Destination,420 E 53rd St,,New York,NY,10022,New York,TESLA,,,1,,,Tesla Destination,200-8,40.755013,-73.963549,5/9/19,115130
ELEC,Icon Parking 300 E 59th Street - Tesla Destination,300 E 59th St,,New York,NY,10022,New York,TESLA,,,2,,,Tesla Destination,200-8,40.760421,-73.964418,5/9/19,115083
ELEC,GMC - BEEKMAN 1,420 E 51st St,Located between 1st Ave & FDR. -  Attendant will assist in charging  vehicle.  Parking rates apply. Inquire  within ,New York,NY,10022,New York,J1772,,,1,,,Blink Network,GPS,40.754022,-73.965166,7/31/19,118348
ELEC,ABM Parking 13 East 54th Street LLC - Tesla Destination,13-17 E 54th St,,New York,NY,10022,New York,TESLA,,,2,,,Tesla Destination,200-8,40.761051,-73.974877,5/9/19,115010
ELEC,BEAM CHARGING,200 W 71st St,HIGHRISE PKNG; basement level right side of pillar,Manhattan,NY,10023,New York,J1772 ,,1,1,,,ChargePoint Network,GPS,40.7780647,-73.9825058,6/12/19,43262
ELEC,Icon Parking - Omni Parking,143-159 W 68th Street,Entrance on 179 W 68th St or 184 W 69th  St between Broadway & Amsterdam Ave. ,New York,NY,10023,New York,J1772,,,1,,,Blink Network,GPS,40.776152,-73.98282,7/31/19,96384
ELEC,Icon Parking - One Lincoln Plaza,20 W 64th Street,Located at B1 ,New York,NY,10023,New York,J1772,,,1,,,Blink Network,GPS,40.771626,-73.981047,7/31/19,95079
ELEC,GMC - Laureate Garage #1,2148  Broadway,,New York,NY,10023,New York,J1772,,,1,,,GE WattStation,GPS,40.7813096,-73.9808336,7/31/19,72922
ELEC,GMC - Laureate Garage #2,2148  Broadway,,New York,NY,10023,New York,J1772,,,1,,,GE WattStation,GPS,40.7813096,-73.9808836,7/31/19,73032
ELEC,W 75th Parking Garage - Tesla Supercharger,201 W 75th Street,,New York,NY,10023,New York,TESLA,,,,4,,Tesla,200-8,40.780743,-73.980137,5/9/19,102335
ELEC,GMC Copley Parking - Tesla Destination,2000 Broadway,,New York,NY,10023,New York,TESLA,,,3,,,Tesla Destination,200-9,40.775496,-73.981552,5/9/19,115044
ELEC,Rapidpark 15 W 72nd Street - Tesla Destination,15 W 72nd St,,New York,NY,10023,New York,TESLA,,,2,,,Tesla Destination,200-9,40.777008,-73.97689,5/9/19,115017
ELEC,Icon Parking 101 West End Ave - Tesla Destination,101 West End Ave,,New York,NY,10023,New York,TESLA,,,2,,,Tesla Destination,200-9,40.775188,-73.988501,5/9/19,114994
ELEC,Glenwood Grand Tier Parking - Tesla Destination,1930 Broadway,,New York,NY,10023,New York,TESLA,,,2,,,Tesla Destination,200-9,40.772436,-73.981695,5/9/19,115036
ELEC,Champion Parking W 76th Street - Tesla Destination,205 W 76th St,,New York,NY,10023,New York,TESLA,,,2,,,Tesla Destination,200-9,40.78168,-73.97994,5/9/19,115048
ELEC,Icon Parking 30 W 63rd St - Tesla Destination,30 W 63rd St,,New York,NY,10023,New York,TESLA,,,2,,,Tesla Destination,200-9,40.770769,-73.981573,5/9/19,115081
ELEC,Champion Parking 74 LLC - Tesla Destination,2109 Broadway,,New York,NY,10023,New York,TESLA,,,2,,,Tesla Destination,200-9,40.780143,-73.98221,5/9/19,115052
ELEC,Icon Parking OMNI - Tesla Destination,143-159 W 68th St,,New York,NY,10023,New York,TESLA,,,2,,,Tesla Destination,200-8,40.775545,-73.9818,5/9/19,115015
ELEC,GGMC Parking Alfred - Tesla Destination,161 W 61st St,,New York,NY,10023,New York,TESLA,,,2,,,Tesla Destination,200-9,40.771561,-73.985834,5/9/19,115027
ELEC,GGMC Parking 10 W 66th St Garage - Tesla Destination,10 W 66th St,,New York,NY,10023,New York,TESLA,,,2,,,Tesla Destination,200-8,40.772308,-73.978966,5/9/19,114987
ELEC,CARCHARGING,214 W 88th St,CENTRAL PKG #1; See Valet Attendant to charge your vehicle,New York,NY,10024,New York,J1772 ,,1,1,,,ChargePoint Network,GPS,40.7892181,-73.9749593,6/12/19,50711
ELEC,Central Parking - 115 E 87th St -  Station 1,115  W 87th St,,New York,NY,10024,New York,J1772,,,1,,,GE WattStation,GPS,40.787599,-73.972015,7/31/19,73040
ELEC,The Centra - Imperial Parking - Station 2,100  W 89th St,,New York,NY,10024,New York,J1772,,,1,,,GE WattStation,GPS,40.7884204,-73.9710821,7/31/19,72821
ELEC,Central Parking - 115 E 87th St- Station 2,115  W 87th St,,New York,NY,10024,New York,J1772,,,1,,,GE WattStation,GPS,40.787599,-73.972115,7/31/19,72919
ELEC,The Centra - Imperial Parking - Station 1,100  W 89th St,,New York,NY,10024,New York,J1772,,,1,,,GE WattStation,GPS,40.7884204,-73.9710821,7/31/19,72910
ELEC,Rapidpark 600 Columbus Ave - Tesla Destination,100 W 89th,,New York,NY,10024,New York,TESLA,,,2,,,Tesla Destination,200-9,40.788305,-73.971353,5/9/19,114990
ELEC,Icon Parking 225 W 83 Street - Tesla Destination,225 W 83rd St,,New York,NY,10024,New York,TESLA,,,2,,,Tesla Destination,200-9,40.786371,-73.977357,5/9/19,115058
ELEC,Icon Parking 100 Riverside Blvd. - Tesla Destination,100 Riverside Blvd,,New York,NY,10024,New York,TESLA,,,2,,,Tesla Destination,200-9,40.775704,-73.989483,5/9/19,114989
ELEC,iPark NYC 88th Street Garage - Tesla Destination,101 W 88th St,,New York,NY,10024,New York,TESLA,,,2,,,Tesla Destination,200-8,40.787976,-73.971145,5/9/19,114993
ELEC,Icon Parking 220 Riverside Blvd - Tesla Destination,220 Riverside Blvd,,New York,NY,10024,New York,TESLA,,,4,,,Tesla Destination,200-9,40.77975,-73.987272,5/9/19,115054
ELEC,Rapidpark 70 Riverside Dr - Tesla Destination,70 Riverside Dr,,New York,NY,10024,New York,TESLA,,,2,,,Tesla Destination,200-9,40.785014,-73.982037,5/9/19,115180
ELEC,Rapidpark 9-11 W 100th Street - Tesla Destination,9 W 100th St,,New York,NY,10024,New York,TESLA,,,2,,,Tesla Destination,200-9,40.794681,-73.963228,5/9/19,115192
ELEC,Rapidpark 254 W 79th Street - Tesla Destination,254 W 79th St,,New York,NY,10024,New York,TESLA,,,2,,,Tesla Destination,200-8,40.78386,-73.980521,5/9/19,115072
ELEC,BEAM CHARGING,750 Columbus Ave,750 COLUMBUS AV; See valet attendant for instructions on how to use charging station.,New York,NY,10025,New York,J1772,,,2,,,ChargePoint Network,GPS,40.793416,-73.967719,6/12/19,88787
ELEC,Champion Parking 113 LLC - Tesla Destination,400 W 113th St,,New York,NY,10025,New York,TESLA,,,2,,,Tesla Destination,200-9,40.804007,-73.960887,5/9/19,115122
ELEC,iPark 245 East 63rd Street - Tesla Destination,245 East 63rd St,,New York,NY,10025,New York,TESLA,,,2,,,Tesla Destination,200-8,40.763562,-73.963079,5/9/19,115065
ELEC,Rapidpark 920 Park Avenue - Tesla Destination,920 Park Ave,,New York,NY,10025,New York,TESLA,,,2,,,Tesla Destination,200-9,40.776673,-73.960253,5/9/19,115195
ELEC,Quik Park Columbia Garage LLC - Tesla Destination,250 W. 97th St,,New York,NY,10025,New York,TESLA,,,2,,,Tesla Destination,200-8,40.795279,-73.971688,5/9/19,115069
ELEC,Propark 401 W 110th Street - Tesla Destination,401 W 110th St,,New York,NY,10025,New York,TESLA,,,2,,,Tesla Destination,200-9,40.802368,-73.961689,5/9/19,115123
ELEC,Quik Park 808 Garage LLC - Tesla Destination,808 Columbus Ave,,New York,NY,10025,New York,TESLA,,,2,,,Tesla Destination,200-9,40.795214,-73.966003,5/9/19,115188
ELEC,City Parking RL Mercer Street - Tesla Destination,40 Mercer St,,New York,NY,10025,New York,TESLA,,,2,,,Tesla Destination,200-9,40.721244,-74.00092,5/9/19,115118
ELEC,Rapidpark 204 W 101st Street - Tesla Destination,204 W 101st St,,New York,NY,10025,New York,TESLA,,,2,,,Tesla Destination,200-9,40.797283,-73.968766,5/9/19,115047
ELEC,Icon Parking 169 W 95th Street - Tesla Destination,169 W 95th St,,New York,NY,10025,New York,TESLA,,,2,,,Tesla Destination,200-9,40.793528,-73.97024,5/9/19,115030
ELEC,iPark 455 Central Park West - Tesla Destination,27 W 105th St,,New York,NY,10025,New York,TESLA,,,2,,,Tesla Destination,200-8,40.797875,-73.961228,5/9/19,115075
ELEC,Rapidpark 210 W 102nd Street - Tesla Destination,210 W 102st St,,New York,NY,10025,New York,TESLA,,,2,,,Tesla Destination,200-9,40.797961,-73.968389,5/9/19,115051
ELEC,MPG 543 W 110th Street Garage - Tesla Destination,543 W 110th St,,New York,NY,10025,New York,TESLA,,,2,,,Tesla Destination,200-9,40.804167,-73.965894,5/9/19,115157
ELEC,iPark NYC Central Harlem Garage Corp. - Tesla Destination,49 W 116th St,,New York,NY,10026,New York,TESLA,,,2,,,Tesla Destination,200-8,40.801497,-73.94792,5/9/19,115141
ELEC,Rapidpark 480 Riverside (120th St) - Tesla Destination,480 Riverside Dr,,New York,NY,10027,New York,TESLA,,,2,,,Tesla Destination,200-8,40.811206,-73.963782,5/9/19,115140
ELEC,GMC - 8 E 83RD ST-STATION 1,8  E 83rd St,,New York,NY,10028,New York,J1772,,,1,,,GE WattStation,GPS,40.7790291,-73.9609047,7/31/19,72949
ELEC,BEAM CHARGING,127 E 83rd St,DUFORD STUDIOS; -,Manhattan,NY,10028,New York,J1772 ,,1,1,,,ChargePoint Network,GPS,40.7778702,-73.9571915,6/12/19,85407
ELEC,GMC - 8 E 83RD ST-STATION 2,8  E 83rd St,,New York,NY,10028,New York,J1772,,,1,,,GE WattStation,GPS,40.7790291,-73.9609047,7/31/19,72927
ELEC,CARCHARGING,400 E 84TH ST,STRATHMORE 1; See valet attendant to use charging station STRATHMORE 2; See valet attendant to use charging station,New York,NY,10028,New York,J1772,,,2,,,ChargePoint Network,200-8,40.775377,-73.950411,6/12/19,53448
ELEC,Rapidpark 351 East 83rd - Tesla Destination,351 E 83rd,,New York,NY,10028,New York,TESLA,,,2,,,Tesla Destination,200-8,40.775208,-73.950978,5/9/19,115110
ELEC,Champion Parking 60 East End Avenue - Tesla Destination,60 East End Ave,,New York,NY,10028,New York,TESLA,,,2,,,Tesla Destination,200-9,40.772794,-73.946969,5/9/19,115168
ELEC,iPark NYC 1025 83rd - Tesla Destination,11 E 83rd St,,New York,NY,10028,New York,TESLA,,,2,,,Tesla Destination,200-8,40.779468,-73.961086,5/9/19,114999
ELEC,Icon Parking 1056 5th Avenue - Tesla Destination,10 E 87th St,,New York,NY,10028,New York,TESLA,,,2,,,Tesla Destination,GPS,40.782031,-73.959484,5/9/19,114985
ELEC,iPark 400 E 85th St - Tesla Destination,400 E 85th St,,Manhattan,NY,10028,New York,TESLA,,,4,,,Tesla Destination,200-8,40.776008,-73.949934,5/9/19,122489
ELEC,Quik Park 86th St. LLC - Tesla Destination,444 E 86th St,,New York,NY,10028,New York,TESLA,,,2,,,Tesla Destination,200-8,40.775975,-73.947732,5/9/19,115139
ELEC,GMC - BELMONT 1,113 E 84th St,Located between Park Ave & Lexington  Ave. - Attendant will assist in  charging vehicle.  Parking rates apply.  Inquire within. ,New York,NY,10028,New York,J1772,,,1,,,Blink Network,GPS,40.773472,-73.955287,7/31/19,121020
ELEC,iPark 41 E 85th Street - Tesla Destination,41 E 85th St,,New York,NY,10028,New York,TESLA,,,2,,,Tesla Destination,200-8,40.780305,-73.959091,5/9/19,115125
ELEC,Quik Park 82nd Street LLC - Tesla Destination,350 E. 82nd St,,New York,NY,10028,New York,TESLA,,,2,,,Tesla Destination,200-9,40.774316,-73.951909,5/9/19,115108
ELEC,imPark 611 E 83rd Street - Tesla Destination,611 E 83rd St,,New York,NY,10028,New York,TESLA,,,2,,,Tesla Destination,200-8,40.772931,-73.945552,5/9/19,115175
ELEC,Champion Parking 90 LLC - Tesla Destination,60 E 90th St,,New York,NY,10028,New York,TESLA,,,2,,,Tesla Destination,GPS,40.783085,-73.956304,5/9/19,115167
ELEC,MP 102 LLC,1214 Fifth Avenue,MP 102 LLC; -,New York,NY,10029,New York,J1772,,,2,,,ChargePoint Network,GPS,40.7912673,-73.9520388,6/12/19,58234
ELEC,iPark 1510 Lex Garage Corp. - Tesla Destination,116 E 98th St,,New York,NY,10029,New York,TESLA,,,3,,,Tesla Destination,200-9,40.787343,-73.951003,5/9/19,115003
ELEC,MPG 10 E 102nd Street - Tesla Destination,10 E 102nd St,,New York,NY,10029,New York,TESLA,,,2,,,Tesla Destination,200-9,40.791232,-73.95237,5/9/19,114983
ELEC,GMC Parking - Travelers Garage,200  Cabrini Blvd,,New York,NY,10033,New York,J1772,,,1,,,GE WattStation,GPS,40.73431396,-74.00195313,7/31/19,73025
ELEC,GMC Parking - 200 Cabrini Blvd - Station 1,200  Cabrini Blvd,,New York,NY,10033,New York,J1772,,,1,,,GE WattStation,GPS,40.854575,-73.938954,7/31/19,72906
ELEC,Castle Village Parking Garage,200 Cabrini Boulevard,Garage entrance is from Cabrini Blvd.  Unit is on the Main Floor. Pull down  the drive way and make your first left. ,New York,NY,10033,New York,J1772,,,1,,,Blink Network,GPS,40.854693,-73.939432,7/31/19,95779
ELEC,Petco,2475 Amsterdam Ave,,New York,NY,10033,New York,J1772,,,1,,,EV Connect,GPS,40.848954,-73.92976,6/6/19,123087
ELEC,Yeshiva University,385 Audubon Ave,,New York,NY,10033,New York,J1772,,,1,,,EV Connect,GPS,40.8506642,-73.9306379,6/6/19,123105
ELEC,Spectrum,401 W 219th St,,New York,NY,10034,New York,J1772,,,8,,,EV Connect,200-8,40.87121,-73.911616,5/9/19,94854
ELEC,EDISONPARKFAST,50 W 44th St,"LOC #100 LEVEL3; Located in basement level of Hippodrome Garage, Edison ParkFast",New York,NY,10036,New York,CHADEMO,,,,1,,ChargePoint Network,200-8,40.7558587,-73.9824966,6/12/19,38981
ELEC,CARCHARGING,400 W 43rd St,MANHATTAN PLAZ1; See valet attendant to use charging station MANHATTAN PLAZ2; See valet attendant to use the charging station,New York,NY,10036,New York,J1772,,,2,,,ChargePoint Network,200-8,40.759104,-73.992644,6/12/19,56090
ELEC,CARCHARGING,450 WEST 42nd St.,MIMA #2; See Valet attendant MIMA; See valet attendant for instructions,New York,NY,10036,New York,J1772 ,,1,2,,,ChargePoint Network,200-9,40.759041,-73.994972,6/12/19,49581
ELEC,CARCHARGING,1114 6th Ave,ICON 1114 6TH; See Valet attendant for use.,New York,NY,10036,New York,J1772,,,1,,,ChargePoint Network,GPS,40.7552452,-73.9834061,6/12/19,48048
ELEC,Manhattan Plaza Parking,427 W 42nd St,Located by the office,New York,NY,10036,New York,CHADEMO,,,,1,,,200-8,40.758936,-73.993842,4/8/19,76683
ELEC,GGMC Parking 350 W 43rd Street Garage - Tesla Destination,350 West 43rd St,,New York,NY,10036,New York,TESLA,,,2,,,Tesla Destination,200-9,40.758503,-73.991285,5/9/19,115109
ELEC,Parkright 670 W 43rd Street - Tesla Destination,670 W 43rd St,,New York,NY,10036,New York,TESLA,,,2,,,Tesla Destination,200-8,40.762316,-74.000256,5/9/19,115178
ELEC,Icon Parking 235 W 48th - Tesla Destination,235 W 48th St,,Manhattan,NY,10036,New York,TESLA,,,4,,,Tesla Destination,200-9,40.760856,-73.986218,5/9/19,114972
ELEC,Mima,450 WEST 42nd St.,,New York,NY,10036,New York,J1772,,,2,,,Blink Network,GPS,40.768211,-73.989479,7/31/19,124834
ELEC,Quik Park 600 West 42nd Street (Silver Towers) LLC - Tesla Destination,600 W 42nd St,,New York,NY,10036,New York,TESLA,,,2,,,Tesla Destination,200-8,40.760809,-73.998773,5/9/19,115170
ELEC,Manhattan Plaza,427 W 42nd St,,New York,NY,10036,New York,J1772,,,2,,,Blink Network,GPS,40.759223,-73.992703,7/31/19,124145
ELEC,Greenlots - 52427,55 W 48th St,,New York City,NY,10036,New York,J1772,,,8,,,Greenlots,200-8,40.759687,-73.983282,7/29/19,123040
ELEC,Quik Park 1133 Garage LLC - Tesla Destination,1133 6th Ave,,New York,NY,10036,New York,TESLA,,,2,,,Tesla Destination,200-9,40.756071,-73.98392,5/9/19,115002
ELEC,Rapid Parking,25 Beekman St,,New York,NY,10038,New York,J1772,,,1,,,Blink Network,GPS,40.710636,-74.006195,7/31/19,124148
ELEC,Rapidpark 25-27 Beekman Street - Tesla Destination,25-27 Beekman St,,New York,NY,10038,New York,TESLA,,,2,,,Tesla Destination,200-9,40.710628,-74.006186,5/9/19,115071
ELEC,Icon Parking 70 Gold Street - Tesla Destination,80 Gold St,,New York,NY,10038,New York,TESLA,,,2,,,Tesla Destination,200-9,40.709609,-74.004401,5/9/19,115186
ELEC,BEAM CHARGING,205 E 63rd St,UPTOWN PARKING; basement level opposite managers office,Manhattan,NY,10065,New York,J1772 ,,1,1,,,ChargePoint Network,GPS,40.7639046,-73.9644852,6/12/19,43263
ELEC,Central Parking - 222 E 65th St- Station 1,222  E 65th St,,New York,NY,10065,New York,J1772,,,1,,,GE WattStation,GPS,40.7646162,-73.9622283,7/31/19,72888
ELEC,BEAM CHARGING,1081 3rd Ave,1081 3RD AVENUE; See Valet for instructions on using charging station.,New York,NY,10065,New York,J1772,,,2,,,ChargePoint Network,GPS,40.764341,-73.96408,6/12/19,51682
ELEC,Central Parking - 222 E 65th St- Station 2,222  E 65th St,,New York,NY,10065,New York,J1772,,,1,,,GE WattStation,GPS,40.7646162,-73.9622783,7/31/19,72916
ELEC,BEAM CHARGING,860 5th Ave,860 FIFTH AVE; See valet attendant to use the charging station.,New York,NY,10065,New York,J1772,,,2,,,ChargePoint Network,GPS,40.769134,-73.968707,6/12/19,51681
ELEC,Icon Parking 360 E 65th - Tesla Destination,360 E 65th St,,Manhattan,NY,10065,New York,TESLA,,,4,,,Tesla Destination,200-8,40.763564,-73.960236,5/9/19,114973
ELEC,Icon Parking 279 East 65th Street - Tesla Destination,279 E 65th St,,New York,NY,10065,New York,TESLA,,,2,,,Tesla Destination,200-8,40.764758,-73.962042,5/9/19,115077
ELEC,Enterprise Parking 200 E 69th St - Tesla Destination,200 E 69th St,,New York,NY,10065,New York,TESLA,,,2,,,Tesla Destination,200-9,40.767289,-73.961762,5/9/19,115041
ELEC,GMC 111 E 82nd St - Tesla Destination,111 E 82nd St,,New York,NY,10065,New York,TESLA,,,2,,,Tesla Destination,200-8,40.777545,-73.958471,5/9/19,115000
ELEC,Central Parking - 222 E 65th St,222 East 65th Street,,New York,NY,10065,New York,J1772,,,2,,,Blink Network,GPS,40.7646162,-73.9622283,7/31/19,124833
ELEC,iPark 112 E 65th Street - Tesla Destination,112 E 65th St,,New York,NY,10065,New York,TESLA,,,2,,,Tesla Destination,200-8,40.766174,-73.966419,5/9/19,115001
ELEC,iPark 3 E 67th Street - Tesla Destination,3 E 67th St,,New York,NY,10065,New York,TESLA,,,2,,,Tesla Destination,200-8,40.769386,-73.969137,5/9/19,115080
ELEC,GMC Parking Narragansett - Tesla Destination,124 E 63rd St,,New York,NY,10065,New York,TESLA,,,2,,,Tesla Destination,200-9,40.764767,-73.967021,5/9/19,115007
ELEC,Parkit 301 E 64th - Tesla Destination,301 E 64th St,,New York,NY,10065,New York,TESLA,,,2,,,Tesla Destination,200-8,40.76389,-73.961892,5/9/19,115087
ELEC,Loews Regency New York - Tesla Destination,540 Park Ave,,New York,NY,10065,New York,TESLA,,,2,,,Tesla Destination,200-9,40.764608,-73.969355,5/9/19,115156
ELEC,iPark 650 Parking Corp - Tesla Destination,80 E 67th St,,New York,NY,10065,New York,TESLA,,,2,,,Tesla Destination,200-8,40.767935,-73.96671,5/9/19,115185
ELEC,Icon Parking 205 E 63rd St - Tesla Destination,205 E 63rd St,,Manhattan,NY,10065,New York,TESLA,,,2,,,Tesla Destination,200-8,40.764174,-73.964533,5/9/19,114974
ELEC,City Parking E 61st Street - Tesla Destination,425 E 61st St,,New York,NY,10065,New York,TESLA,,,2,,,Tesla Destination,200-9,40.760522,-73.959278,5/9/19,115135
ELEC,Prime Parking Systems - 155 E 68th Street - Tesla Destination,155 E 68th St,,New York,NY,10065,New York,TESLA,,,2,,,Tesla Destination,200-8,40.768032,-73.963983,5/9/19,115024
ELEC,Icon 80 Riverside Blvd - Tesla Destination,80 Riverside Blvd,,New York,NY,10069,New York,TESLA,,,2,,,Tesla Destination,200-9,40.775054,-73.989946,5/9/19,115187
ELEC,Icon 299 Peal Street Seaport Parking - Tesla Destination,238 Pearl St,,New York,NY,10069,New York,TESLA,,,2,,,Tesla Destination,200-8,40.70736,-74.004989,5/9/19,115063
ELEC,Quik Park Hudson 180 LLC - Tesla Destination,180 Riverside Blvd,,New York,NY,10069,New York,TESLA,,,2,,,Tesla Destination,200-9,40.778397,-73.987899,5/9/19,115033
ELEC,CARCHARGING,204 E 80th St,"SFG GARAGE 1; To use the charging station, see the valet attendant. SFG GARAGE 2; To use the charging station, see valet attendant.",New York,NY,10075,New York,J1772,,,2,,,ChargePoint Network,200-8,40.774703,-73.956695,6/12/19,53125
ELEC,iPark NYC 345 East Garage - Tesla Destination,345 East 80th St,,New York,NY,10075,New York,TESLA,,,2,,,Tesla Destination,200-9,40.773471,-73.952304,5/9/19,115105
ELEC,Parkright 300 E 77th St - Tesla Destination,300 East 77th St,,New York,NY,10075,New York,TESLA,,,2,,,Tesla Destination,200-9,40.771689,-73.955816,5/9/19,115085
ELEC,imPark 422 E 79th Street - Tesla Destination,422 E 79th St,,New York,NY,10075,New York,TESLA,,,2,,,Tesla Destination,200-8,40.771766,-73.951838,5/9/19,115132
ELEC,SFG Garage,204 E 80th Street,,New York,NY,10075,New York,J1772,,,2,,,Blink Network,GPS,40.774436,-73.956354,7/31/19,124696
ELEC,GGMC Parking 50 E 79th St Garage - Tesla Destination,50 E 79th St,,New York,NY,10075,New York,TESLA,,,2,,,Tesla Destination,200-9,40.775932,-73.961937,5/9/19,115144
ELEC,iPark 530 E 80th Street - Tesla Destination,530 E 80th St,,New York,NY,10075,New York,TESLA,,,2,,,Tesla Destination,200-8,40.771136,-73.948252,5/9/19,115151
ELEC,GGMC Parking 415 E 79th - Tesla Destination,415 E 79th St,,New York,NY,10075,New York,TESLA,,,2,,,Tesla Destination,200-8,40.772197,-73.95183,5/9/19,115127
ELEC,1345 Parking Garage - Tesla Destination,1345 6th Ave,,New York,NY,10105,New York,TESLA,,,2,,,Tesla Destination,GPS,40.76351,-73.979364,5/9/19,115012
ELEC,CARCHARGING,1 Pennsylvania Plaza,ICON-1 PENN PLA; See valet attendant for charging station,New York,NY,10119,New York,J1772 ,,1,1,,,ChargePoint Network,GPS,40.75147,-73.9927795,6/12/19,56001
ELEC,Icon Parking - Claridge 87 Parking,200-206 E 88th Street,Entrance on 205 E 87th St or 206 E 88th  St between 2nd & 3rd Ave ,New York,NY,10128,New York,J1772,,,1,,,Blink Network,GPS,40.779901,-73.952675,7/31/19,96488
ELEC,CARCHARGING,215 E 96th St,CARNEGIE HILL#1; See valet attendant for instructions CARNEGIE HILL#2; See Valet attendant for instructions.,New York,NY,10128,New York,J1772 ,,1,2,,,ChargePoint Network,200-9,40.78513,-73.947969,6/12/19,49582
ELEC,Rapidpark 340 94th Street - Tesla Destination,340 E 94th St,,New York,NY,10128,New York,TESLA,,,2,,,Tesla Destination,200-8,40.781961,-73.946209,5/9/19,115104
ELEC,Carnegie Hill,215 E 96th St,,New York,NY,10128,New York,J1772,,,2,,,Blink Network,GPS,40.784865,-73.948526,7/31/19,124831
ELEC,Icon Parking E 88th Street - Tesla Destination,536 E 88th St,,New York,NY,10128,New York,TESLA,,,2,,,Tesla Destination,200-8,40.776302,-73.944521,5/9/19,115153
ELEC,GGMC Parking Carnegie Garage - Tesla Destination,40 E 94th St,,New York,NY,10128,New York,TESLA,,,2,,,Tesla Destination,200-9,40.785524,-73.95496,5/9/19,115117
ELEC,RapidPark 600 Columbus Ave - Tesla Destination,600 Columbus Ave,,New York,NY,10128,New York,TESLA,,,2,,,Tesla Destination,200-9,40.788716,-73.970934,5/9/19,115169
ELEC,GGMC Yorkville Car Park - Tesla Destination,230 E 92nd St,,New York,NY,10128,New York,TESLA,,,2,,,Tesla Destination,200-8,40.782163,-73.95059,5/9/19,115060
ELEC,Strathmore,400 E 84th St,,New York,NY,10128,New York,J1772,,,2,,,Blink Network,GPS,40.775203,-73.950295,7/31/19,124832
ELEC,MPG 340 East 93rd - Tesla Destination,340 E 93rd St,,New York,NY,10128,New York,TESLA,,,2,,,Tesla Destination,200-8,40.781375,-73.946721,5/9/19,115103
ELEC,iPark NYC The Carnegie Garage - Tesla Destination,200 E 94th St,,New York,NY,10128,New York,TESLA,,,2,,,Tesla Destination,200-9,40.783355,-73.949998,5/9/19,115043
ELEC,GGMC Ruppert Car Park - Tesla Destination,245 E 90th St,,New York,NY,10128,New York,TESLA,,,2,,,Tesla Destination,200-8,40.780918,-73.950526,5/9/19,115066
ELEC,BEAM CHARGING,375 Park Ave,SEAGRAMS BLDG; See valet attendant to use charging station.,New York,NY,10152,New York,J1772,,,2,,,ChargePoint Network,GPS,40.758462,-73.972211,6/12/19,51683
ELEC,Icon Parking 150 E 58th Street - Tesla Destination,150 E 58th St,,New York,NY,10155,New York,TESLA,,,2,,,Tesla Destination,200-9,40.76161,-73.96775,5/9/19,115019
ELEC,MP 225 LLC,225 Rector Pl,"NS1-225 RECTOR; First level of garage, east wall near garage cashier office",New York,NY,10280,New York,J1772,,,2,,,ChargePoint Network,GPS,40.7092248,-74.0161545,6/12/19,52290
ELEC,Standard Parking Gateway Plaza Garage - Tesla Destination,339 South End Ave,,New York,NY,10280,New York,TESLA,,,2,,,Tesla Destination,200-8,40.710652,-74.016396,5/9/19,115102
ELEC,GGMC The Cove - Tesla Destination,99 Battery Pl,,New York,NY,10280,New York,TESLA,,,2,,,Tesla Destination,200-9,40.707624,-74.016593,5/9/19,115197
ELEC,GGMC Parking Battery Place - Tesla Destination,50 Battery Pl,,New York,NY,10280,New York,TESLA,,,2,,,Tesla Destination,200-9,40.706643,-74.018095,5/9/19,115143
ELEC,Quik Park Little West LLC - Tesla Destination,70 Little West St,,New York,NY,10280,New York,TESLA,,,2,,,Tesla Destination,200-9,40.706976,-74.016962,5/9/19,115179
ELEC,Icon Parking 237 West Thames - Tesla Destination,237 W Thames,,New York,NY,10280,New York,TESLA,,,2,,,Tesla Destination,200-8,40.708465,-74.016762,5/9/19,115062
ELEC,Greenlots - 92052,250 Vesey St,,New York,NY,10281,New York,J1772,,,2,,,Greenlots,200-9,40.713828,-74.015909,7/29/19,99159
ELEC,Greenlots - 92086,200 Liberty,,New York,NY,10281,New York,J1772,,,2,,,Greenlots,200-9,40.710905,-74.015585,7/29/19,99175
ELEC,ALBANESE ORG,20 River Terrace,NS1-20RIVER TER THE SOLAIRE ST1,New York,NY,10282,New York,J1772 J1772COMBO,,,2,1,,ChargePoint Network,200-9,40.716604,-74.016103,6/12/19,77133
ELEC,CARCHARGING,325 North End Ave,TRIBECA GREEN 1; See valet attendant to use charging station,New York,NY,10282,New York,J1772,,,1,,,ChargePoint Network,GPS,40.71695,-74.014948,6/12/19,53451
ELEC,ALBANESE ORG,95 North End Ave,NS1-211NORTHEND,New York,NY,10282,New York,J1772,,,2,,,ChargePoint Network,GPS,40.7151023,-74.0163292,6/12/19,77132
ELEC,Quik Park 40 Riverside Blvd - Tesla Destination,251 W 62nd St,,New York,NY,10282,New York,TESLA,,,2,,,Tesla Destination,200-8,40.773464,-73.989532,5/9/19,115070
ELEC,Saint George Courthouse,54 Central Ave,,Staten Island,NY,10301,Richmond,J1772,,,5,,,EV Connect,200-9,40.63947,-74.076912,5/9/19,65296
ELEC,Nissan of Staten Island,1976 Hylan Blvd,,Staten Island,NY,10306,Richmond,J1772,,,1,,,,200-9,40.581432,-74.097694,7/9/18,99500
ELEC,Angelina's Ristorante - Tesla Destination,399 Ellis St,,Staten Island,NY,10307,Richmond,TESLA,,,3,,,Tesla Destination,200-9,40.51337,-74.25137,5/9/19,115240
ELEC,Dana Ford Lincoln,266 W Service Rd,,Staten Island,NY,10314,Richmond,J1772,,,1,,,,200-8,40.564507,-74.196034,4/8/19,64140
ELEC,Gateway Center at Bronx Terminal Market,610 Exterior St,Level 1 across from Home Depot lot near  the Parking Customer Service Window ,Bronx,NY,10451,Bronx,J1772,,,1,,,Blink Network,GPS,40.822142,-73.931128,7/31/19,96647
ELEC,East 149th Street Municipal Parking Garage,315 E 149th St,,Bronx,NY,10451,Bronx,J1772,,,3,,,EV Connect,200-9,40.817326,-73.920914,5/9/19,65291
ELEC,MP 102 LLC,401 Bedford Park Blvd,"MP GARDEN; 2nd level of garage, Bedford Park side",Bronx,NY,10458,Bronx,J1772,,,2,,,ChargePoint Network,GPS,40.8671646,-73.8831863,6/12/19,46412
ELEC,WCS,2300 Southern Blvd,NS1 SOUTHERN; -,Bronx,NY,10460,Bronx,J1772,,,2,,,ChargePoint Network,200-9,40.850625,-73.8811322,6/12/19,51676
ELEC,WCS,Boston Rd,NS1 ASIA NS1 BOSTON RD; Bronx zoo Asia Parking lot,Bronx,NY,10460,Bronx,J1772,,,3,,,ChargePoint Network,GPS,40.8466117,-73.876323,6/12/19,104341
ELEC,ATAHOUSING407,1734-1774 Mulford Ave,"HAZEL TOWERS 1; Restricted for use to residents only, station is between Spaces #158 &amp; #159",Bronx,NY,10461,Bronx,J1772,,,2,,,ChargePoint Network,GPS,40.8468211,-73.8346327,6/12/19,52016
ELEC,Century Parking Corp - Tesla Destination,2600 Netherland Ave,,Bronx,NY,10463,Bronx,TESLA,,,4,,,Tesla Destination,200-9,40.878611,-73.914792,5/9/19,114888
ELEC,MONTEFIOREMOSES,613 E 233rd St,"WAKEFIELD; Located in the 24 hour garage at Montefiori Wakefield Campus.  Right side of garage entrance, in line of sight with attendant booth.  ",Bronx,NY,10466,Bronx,J1772,,,2,,,ChargePoint Network,GPS,40.894881,-73.860525,6/12/19,53110
ELEC,MONTEFIOREMOSES,111 E 210th St,"MOSES; Located in the Montefiori Moses Center parking garage, Rochambeau entrance ",New York,NY,10467,Bronx,J1772,,,2,,,ChargePoint Network,GPS,40.8797184,-73.8803938,6/12/19,53124
ELEC,Jerome-Gun Hill Road - Municipal Parking Garage,3510 Jerome Ave,,New York,NY,10467,Bronx,J1772,,,5,,,EV Connect,GPS,40.882958,-73.880725,6/6/19,123102
ELEC,Parking Garage,2478 Jerome Ave,,Bronx,NY,10468,Bronx,J1772,,,3,,,EV Connect,200-8,40.863131,-73.900529,5/9/19,94830
ELEC,LAFAYETTE BOYNT,901 Boynton Ave,"LAF BOYNT 1; Lot entrance at Story and Elder, charging station is immediately to the right of the entrance, between spaces 579 &amp; 580",Bronx,NY,10473,Bronx,J1772,,,2,,,ChargePoint Network,GPS,40.8214511,-73.8776415,6/12/19,51297
ELEC,Mall at Bay Plaza - Tesla Supercharger,260 Baychester Ave,,Bronx,NY,10475,Bronx,TESLA,,,,12,,Tesla,GPS,40.863317,-73.828856,6/6/19,122866
ELEC,Somers Commons Shopping Center,80 Route 6,,Baldwin Place,NY,10505,Westchester,CHADEMO J1772COMBO,,,,2,,eVgo Network,GPS,41.34334,-73.75728,7/31/19,93700
ELEC,AutoZone Auto Parts,57 Route 6,,Baldwin Place,NY,10505,Westchester,J1772,,,1,,,EV Connect,GPS,41.3460931,-73.7567311,6/6/19,123121
ELEC,BEDFORDEV,65 Greenwich Rd,MEMORIAL PARK 1; Bedford Village Memorial Park (near exit),Bedford,NY,10506,Westchester,J1772,,,2,,,ChargePoint Network,GPS,41.1970582,-73.644729,6/12/19,88543
ELEC,BEDFORDEV,321 Bedford Rd.,TOWN HALL; Bedford Town Hall - side parking lot,Bedford Hills,NY,10507,Westchester,J1772,,,2,,,ChargePoint Network,GPS,41.2398198,-73.6990734,6/12/19,88540
ELEC,BEDFORDEV,11 Railroad Ave,METRO NORTH RR1; Bedford Hills Metro North Train Station ,Bedford Hills,NY,10507,Westchester,J1772,,,2,,,ChargePoint Network,GPS,41.2373612,-73.7001054,6/12/19,88539
ELEC,BEDFORDEV,60 Haines Rd.,MEMORIAL PARK 2; Bedford Hills Memorial Park (near Soccer Field),Bedford Hills,NY,10507,Westchester,J1772,,,2,,,ChargePoint Network,GPS,41.2341135,-73.7066215,6/12/19,88541
ELEC,BEDFORD_EV,307 Bedford Rd,TOWN COURT 2; Near left side enterance ,Bedford Hills,NY,10507,Westchester,J1772,,,2,,,ChargePoint Network,GPS,41.2397246,-73.698992,6/12/19,116979
ELEC,BREWSTER HONDA,2 Allview Ave,STATION01; Outside Service center garage ,Brewster,NY,10509,Putnam,J1772,,,2,,,ChargePoint Network,200-9,41.3959906,-73.6053729,6/12/19,118998
ELEC,Putnam Plaza Shopping Center,1872 Route 6,,Carmel,NY,10512,Putnam,CHADEMO J1772COMBO,,,,2,,eVgo Network,GPS,41.41401,-73.66824,7/31/19,93701
ELEC,Chappaqua Metro - North Train Station,108 Allen Pl,Exit 32 off Saw Mill River Parkway,Chappaqua,NY,10514,Westchester,J1772,,,3,,,EV Connect,200-8,41.159228,-73.773508,5/9/19,65273
ELEC,Gedney Park,155 Millwood Rd,,Chappaqua,NY,10514,Westchester,J1772,,,1,,,EV Connect,GPS,41.184415,-73.79618,6/6/19,123070
ELEC,New Castle Town,200 S Greeley Ave,,Chappaqua,NY,10514,Westchester,J1772,,,1,,,EV Connect,GPS,41.1554224,-73.7746444,6/6/19,123079
ELEC,Chappaqua Train Station,Allan Pl,,Chappaqua,NY,10514,Westchester,J1772,,,2,,,EV Connect,GPS,41.159024,-73.773454,6/6/19,123143
ELEC,Metro-North Train Station - Cortlandt,2 Memorial Dr,,Cortlandt Manor,NY,10520,Westchester,J1772,,,4,,,,200-9,41.245835,-73.921543,4/8/19,65283
ELEC,MUNICIPAL BLDG,1 Van Wyck St,PUBLIC - B; North side of Municipal Building,Croton-on-Hudson,NY,10520,Westchester,J1772,,,2,,,ChargePoint Network,GPS,41.208506,-73.8875003,6/12/19,122766
ELEC,MAIN LOT,112 Main St,"EV 1; -Village Hall, Cross Elm, Cross Oak",Dobbs Ferry,NY,10522,Westchester,J1772,,,2,,,ChargePoint Network,GPS,41.0156911,-73.8745317,6/12/19,104699
ELEC,JLRWHITEPLAINS,295 E Main St,DC FAST 01; Service area DC FAST 02; Main parking lot  SHOP 01; Rear of building ,Elmsford,NY,10523,Westchester,J1772 J1772COMBO,,,1,2,,ChargePoint Network,200-9,41.047563,-73.806333,6/12/19,100430
ELEC,The Garrison and Highlands Country Club - Tesla Destination,1 Snakehill Rd,,Garrison,NY,10524,Putnam,TESLA,,,2,,,Tesla Destination,200-8,41.381167,-73.912428,5/9/19,114945
ELEC,Dalewood Shopping Center,371 North Central Avenue,,Hartsdale,NY,10530,Westchester,CHADEMO J1772 J1772COMBO,,,1,3,,Electrify America,GPS,41.032196,-73.787087,7/31/19,123817
ELEC,Candela Systems Corp,168 Old Sawmill River Rd,,Hawthorne,NY,10532,Westchester,J1772,,,2,,,EV Connect,GPS,41.097414,-73.8075924,6/6/19,122897
ELEC,Tazza Cafe,186 Katonah Ave,,Katonah,NY,10536,Westchester,CHADEMO J1772COMBO,,,,2,,eVgo Network,GPS,41.25652,-73.68427,7/31/19,93696
ELEC,BEDFORD_EV,70 Katonah Ave.  Lot 1,KATONAH LOT 1; Kotanah Train Metro North - Parking Lot 1,Katonah,NY,10536,Westchester,J1772,,,2,,,ChargePoint Network,GPS,41.2598094,-73.6838308,6/12/19,88542
ELEC,BEDFORD_EV,2-42 Jay St Jay Street Lot,JAY ST LOT; Katonah Metro North Train Station - Jay St. Lot,Katonah,NY,10536,Westchester,J1772,,,2,,,ChargePoint Network,GPS,41.2591794,-73.6826563,6/12/19,88538
ELEC,MAMARONECK BMW,282-300 W Boston Post Rd,STATION 01,Mamaroneck,NY,10543,Westchester,J1772,,,2,,,ChargePoint Network,GPS,40.9465679,-73.735108,6/12/19,62459
ELEC,HUNTER LOT,141 Prospect Ave,MAMARONECK; On 1st level on south side of garage,Mamaroneck,NY,10543,Westchester,J1772,,,2,,,ChargePoint Network,GPS,40.9495831,-73.735136,6/12/19,99633
ELEC,MOHEGAN LAKE.VW,1744 E Main St,VW_408376_A,Mohegan Lake,NY,10547,Westchester,J1772,,,2,,,ChargePoint Network,GPS,41.324305,-73.852224,6/12/19,64439
ELEC,NW HOSPITAL,400 E Main St,NORTH EAST UNIT; Basement Level of Garage - Next to Electric Room NORTH WEST UNIT; Basement Level of Garage - Next to stairs,Mount Kisco,NY,10549,Westchester,J1772,,,4,,,ChargePoint Network,200-8,41.196727,-73.724645,6/12/19,52027
ELEC,WCS,55 South St,MERCH 1,Mount Vernon,NY,10550,Westchester,J1772,,,1,,,ChargePoint Network,GPS,40.9075399,-73.8490789,6/12/19,118338
ELEC,Arcadian Shopping Center,216 S Highland Ave,,Ossining,NY,10562,Westchester,CHADEMO J1772COMBO,,,,2,,eVgo Network,GPS,41.143359,-73.862657,7/31/19,93704
ELEC,OSSINING TOWN,Ryder Park 43 Morningside Drive,RYDER PARK,Ossining,NY,10562,Westchester,J1772,,,2,,,ChargePoint Network,GPS,41.1666875,-73.8279249,6/12/19,95017
ELEC,OSSINING,101 NY-9A,"EV 1; Drive into driveway, on the right hand side of property",Ossining,NY,10562,Westchester,J1772,,,2,,,ChargePoint Network,GPS,41.1786944,-73.8406187,6/12/19,69704
ELEC,OSSINING TOWN,Louis Engel Park (Waterfront Park) 161-185 Westerly Rd.,LOUIS ENGEL; In parking lot,Ossining,NY,10562,Westchester,J1772,,,2,,,ChargePoint Network,GPS,41.1560935,-73.8696397,6/12/19,96726
ELEC,OSSINING TOWN,Cedar Lane Park 235 Cedar Lane,"CEDAR LANE; Once in Park, follow sign to Arts Center",Ossining,NY,10562,Westchester,J1772,,,2,,,ChargePoint Network,GPS,41.1916085,-73.8546919,6/12/19,95018
ELEC,Arcadian Shopping Center - Tesla Supercharger,216 S Highland Ave,,Ossining,NY,10562,Westchester,TESLA,,,,12,,Tesla,GPS,41.144012,-73.861277,,127958
ELEC,Cortlandt Train Station,2 Memorial Dr,,Cortlandt Manor,NY,10566,Westchester,J1772,,,4,,,EV Connect,200-9,41.360081,-73.572809,5/9/19,94837
ELEC,Town of Cortlandt,1 Heady St,"Right off Oregon Rd, north of Bear Mountain State Parkway",Cortlandt,NY,10567,Westchester,J1772,,,2,,,EV Connect,200-9,41.310139,-73.905002,5/3/18,65270
ELEC,Gallin Beeler Design Studio,23 Washington Ave,,Pleasantville,NY,10570,Westchester,J1772,,,3,,,EV Connect,GPS,41.135753,-73.7914967,6/6/19,123192
ELEC,Nissan City - Port Chester,225 Boston Post Rd,,Port Chester,NY,10573,Westchester,J1772,,,1,,,,200-9,40.996358,-73.669405,7/9/18,44184
ELEC,MASTERCARD INT,2000 Purchase St,STATIION1 STATION 6 STATION 7 STATION 8 STATION 9,Harrison,NY,10577,Westchester,J1772,,,10,,,ChargePoint Network,200-8,41.024512,-73.711257,6/12/19,118044
ELEC,Courtyard Marriott,631 Midland Ave,,Rye,NY,10580,Westchester,J1772,,,2,,,EV Connect,200-9,40.989535,-73.672445,5/9/19,94858
ELEC,Courtyard Marriott - Rye,631 Midland Ave,,Rye,NY,10580,Westchester,CHADEMO J1772COMBO,,,,8,,eVgo Network,GPS,40.989586,-73.671855,7/31/19,122804
ELEC,Serendipity Labs Inc. - Tesla Destination,80 Theodore Fremd Ave,,Rye,NY,10580,Westchester,TESLA,,,1,,,Tesla Destination,200-9,40.983031,-73.687987,5/9/19,115231
ELEC,Blind Brook Treatment Plant,141 Oakland Beach Ave,,Rye,NY,10580,Westchester,J1772,,,1,,,EV Connect,GPS,40.9653522,-73.6897308,6/6/19,123067
ELEC,Greenville Center,855 Central Park Ave,,Scarsdale,NY,10583,Westchester,CHADEMO J1772COMBO,,,,2,,eVgo Network,GPS,40.99542,-73.818987,7/31/19,93703
ELEC,Greenlots - 92230,14 Freightway,,Scarsdale,NY,10583,Westchester,J1772,,,1,,,Greenlots,GPS,40.98776627,-73.80925751,7/29/19,118059
ELEC,Greenlots - 92229,1001 Post Road,,Scarsdale,NY,10583,Westchester,J1772,,,1,,,Greenlots,GPS,40.98776627,-73.80925751,7/29/19,118058
ELEC,Towne Centre at Somers,325 Route 100,,Somers,NY,10589,Westchester,CHADEMO J1772COMBO,,,,2,,eVgo Network,GPS,41.32562,-73.68772,7/31/19,93699
ELEC,Dunkin Donuts,4 Independent Way,,Brewster,NY,10590,Westchester,J1772,,,4,,,EV Connect,200-9,41.416405,-73.624373,5/9/19,94829
ELEC,Sleepy Hollow Senior Center,55 Elm St,,Sleepy Hollow,NY,10591,Westchester,J1772,,,2,,,EV Connect,200-9,41.08572,-73.865534,5/9/19,94860
ELEC,Tarrytown Metro - North Train Station,4173 Green St,East side of the tracks near Marina. Parking spaces are against the fence by the tracks,Tarrytown,NY,10591,Westchester,J1772,,,3,,,EV Connect,GPS,41.07626119,-73.86568629,2/6/19,65271
ELEC,DOUBLETREEHOTEL,455 S Broadway,DC FAST CHARGER; ChargePoint BMW & VW Express Corridor Location,Tarrytown,NY,10591,Westchester,J1772COMBO,,,,1,,ChargePoint Network,GPS,41.0614105,-73.8628291,6/12/19,71167
ELEC,EV CHARGE460,460 S Broadway,STATION1; -,Tarrytown,NY,10591,Westchester,J1772,,,2,,,ChargePoint Network,200-9,41.0609957,-73.8615245,6/12/19,99546
ELEC,Tarrytown House Estate on the Hudson - Tesla Destination,49 E Sunnyside Ln,,Tarrytown,NY,10591,Westchester,TESLA,,,2,,,Tesla Destination,200-8,41.048273,-73.85744,5/9/19,115242
ELEC,Sheraton Tarrytown Hotel - Tesla Supercharger,600 White Plains Road,,Tarrytown,NY,10591,Westchester,TESLA,,,,12,,Tesla,200-8,41.062191,-73.837523,5/9/19,102346
ELEC,TOWN OF MP,1 Town Hall Plaza,TMP STATION 1 TMP STATION 2,Valhalla,NY,10595,Westchester,J1772,,,3,,,ChargePoint Network,200-9,41.095428,-73.777794,6/12/19,123413
ELEC,Westchester Medical Center,100 Woods Rd,,Valhalla,NY,10595,Westchester,J1772,,,2,,,EV Connect,GPS,41.086676,-73.8060649,6/6/19,123262
ELEC,Nissan of Yorktown Heights,3495 Old Crompond Rd,,Yorktown Heights,NY,10598,Westchester,J1772,,,1,,,,200-8,41.289317,-73.835547,7/9/18,44218
ELEC,Staples Plaza,3379 Crompond Rd,,Yorktown Heights,NY,10598,Westchester,CHADEMO J1772COMBO,,,,2,,eVgo Network,GPS,41.289963,-73.830711,7/31/19,93697
ELEC,IBM Corp - Yorktown Research Center,1101 Kitchawan Rd,Route 134,Yorktown Heights,NY,10598,Westchester,J1772,,,6,,,EV Connect,GPS,41.2157994,-73.8080055,6/6/19,123059
ELEC,Dunkin??? Donuts - Tesla Supercharger,3303 Crompond Rd,,Yorktown Heights,NY,10598,Westchester,TESLA,,,,12,,Tesla,GPS,41.290578,-73.832502,,127957
ELEC,Hamilton Parking Garage,365 Hamilton Ave,Near entrance from EJ Conroy Dr,White Plains,NY,10601,Westchester,J1772,,,6,,,EV Connect,200-9,41.034121,-73.766241,5/9/19,65274
ELEC,Longview Parking Garage,11 Longview Ave,"South of E Post Rd. Located at northeast corner of garage, ground level",White Plains,NY,10601,Westchester,J1772,,,2,,,EV Connect,200-9,41.026867,-73.767674,5/9/19,65275
ELEC,Lexington-Grove East Garage,100 Main St,Turn right from Main St. Entrance. EVSE facing Dr. Martin Luther King Jr Blvd,White Plains,NY,10601,Westchester,J1772,,,2,,,EV Connect,200-9,41.031464,-73.769946,5/9/19,65278
ELEC,Westchester County Department of Health,134 Main St,,White Plains,NY,10601,Westchester,J1772,,,3,,,EV Connect,200-8,41.031941,-73.769376,5/9/19,94865
ELEC,Parking Lot,1 Lyon Pl,,White Plains,NY,10601,Westchester,J1772,,,2,,,EV Connect,200-9,41.02932,-73.763192,5/9/19,94864
ELEC,Lyons Place Municipal Parking Garage,4 Lyons Pl,"North of Maple Ave. Located on 1st level, just right of entrance",White Plains,NY,10601,Westchester,J1772,,,2,,,EV Connect,200-8,41.02894,-73.763727,6/5/18,65276
ELEC,JLRWHITEPLAINS,265 east Main Street,STATION 01; Main lot,White Plains,NY,10601,Westchester,J1772,,,1,,,ChargePoint Network,GPS,41.0342687,-73.7647019,6/12/19,104576
ELEC,One City Place,One City Pl,,White Plains,NY,10601,Westchester,J1772,,,4,,,EV Connect,GPS,41.0327249,-73.7652379,6/6/19,123270
ELEC,Office Building,50 Haarlem Ave,,White Plains,NY,10603,Westchester,J1772,,,7,,,EV Connect,200-9,41.051099,-73.771738,5/9/19,94867
ELEC,North White Plains Parking,50 Haarlen Ave,,White Plains,NY,10603,Westchester,J1772,,,1,,,EV Connect,GPS,41.051117,-73.771807,6/6/19,123118
ELEC,Metro North - White Plains,101 Fisher Ln,,White Plains,NY,10603,Westchester,J1772,,,10,,,EV Connect,GPS,41.0534449,-73.7724041,6/6/19,123265
ELEC,Westchester Park Center,4 Westchester Park Drive,These stations are for Tenants and their guest use only.,White Plains,NY,10604,Westchester,J1772,,,6,,,SemaCharge Network,GPS,41.0229254,-73.72545,7/31/19,87808
ELEC,PARKING GARAGE,15 Bank St,STATION 1; 1st floor section A3 STATION 2; 1st fl section A3,White Plains,NY,10606,Westchester,J1772,,,4,,,ChargePoint Network,200-9,41.031322,-73.774501,6/12/19,85575
ELEC,NORDEN LOFTS,121 Westmoreland Ave,NORDEN LOFTS 1; East side of bldg. NORDEN LOFTS 2; West side of bldg,White Plains,NY,10606,Westchester,J1772,,,4,,,ChargePoint Network,200-9,41.027432,-73.777595,6/12/19,99448
ELEC,Continuum - Tesla Destination,55 Bank St,,White Plains,NY,10606,Westchester,TESLA,,,5,,,Tesla Destination,200-9,41.029402,-73.774815,5/9/19,115248
ELEC,LASH VW,376 Tarrytown Rd,VW_408340_A,White Plains,NY,10607,Westchester,J1772,,,2,,,ChargePoint Network,GPS,41.0430009,-73.796297,6/12/19,70933
ELEC,White Plains Nissan,500 Tarrytown Rd,,White Plains,NY,10607,Westchester,J1772,,,1,,,,200-9,41.043879,-73.801844,7/9/18,44214
ELEC,BMW WESTCHER,525 Tarrytown Rd,STATION 01,White Plains,NY,10607,Westchester,J1772,,,2,,,ChargePoint Network,GPS,41.0433142,-73.8022554,6/12/19,62863
ELEC,City of Yonkers,40 S Broadway,,Yonkers,NY,10701,Westchester,J1772,,,3,,,EV Connect,200-9,40.932276,-73.897606,5/9/19,94870
ELEC,Yonkers Parking Authority,8 Buena Vista Ave,,Yonkers,NY,10701,Westchester,J1772,,,4,,,EV Connect,200-9,40.93427,-73.902149,5/9/19,94871
ELEC,Westchester's Ridge Hill - Tesla Supercharger,Archer Street,,Yonkers,NY,10701,Westchester,TESLA,,,,18,,Tesla,GPS,40.963395,-73.854936,5/9/19,102351
ELEC,STEINSCHINDER,1 Main St,MAIN ST; -,Hastings-on-Hudson,NY,10706,Westchester,J1772,,,2,,,ChargePoint Network,GPS,40.9944451,-73.8826566,6/12/19,123670
ELEC,TUCKAHOE#1,44 Crescent Pl,STATION#1; In the Fisher Avenue Municipal Parking Lot,Tuckahoe,NY,10707,Westchester,J1772,,,2,,,ChargePoint Network,GPS,40.9584038,-73.8195746,6/12/19,67066
ELEC,Central Avenue Nissan,1919 Central Park Ave,,Yonkers,NY,10710,Westchester,CHADEMO J1772 J1772COMBO,,,1,1,,,200-9,40.96453,-73.839438,7/9/18,49678
ELEC,Hampton Inn & Suites Yonkers - Westchester - Tesla Destination,555 Tuckahoe Rd,,Yonkers,NY,10710,Westchester,TESLA,,,1,,,Tesla Destination,200-9,40.954894,-73.849732,5/9/19,115252
ELEC,Nissan of New Rochelle,2533 Palmer Ave,,New Rochelle,NY,10801,Westchester,J1772,,,1,,,,200-8,40.919104,-73.776645,7/9/18,44360
ELEC,Sky Zone Trampoline Park,33 LeCount Pl,,New Rochelle,NY,10801,Westchester,J1772,,,4,,,EV Connect,200-9,40.911315,-73.779296,5/9/19,94853
ELEC,New Roc Parking Deck,33 Lecount Pl,,New Rochelle,NY,10801,Westchester,CHADEMO J1772COMBO,,,,12,,eVgo Network,GPS,40.911425,-73.781383,7/31/19,125756
ELEC,New Roc Garage - Tesla Supercharger,33 LeCount Place and Huguenot Street,,New Rochelle,NY,10801,Westchester,TESLA,,,,8,,Tesla,GPS,40.912547,-73.780488,5/9/19,102333
ELEC,GSH NY,255 Lafayette Ave,"DOCTORS PARKING; Good Samaritan Hospital Dr Parking Lot, Restricted For Employees Only",Suffern,NY,10901,Rockland,J1772,,,2,,,ChargePoint Network,GPS,41.11209,-74.13656,6/12/19,123665
ELEC,SHELDON SUFFERN,128 Orange Ave,ORANGE APT 2 ORANGE AV APT 1,Suffern,NY,10901,Rockland,J1772,,,4,,,ChargePoint Network,200-9,41.115126,-74.153754,6/12/19,122632
ELEC,Crowne Plaza Suffern-Mahwah - Tesla Destination,3 Executive Blvd,,Suffern,NY,10901,Rockland,TESLA,,,2,,,Tesla Destination,200-8,41.118791,-74.113794,5/9/19,115241
ELEC,Bear Mountain State Park,105 Iona Rd,,Bear Mountain,NY,10911,Orange,J1772,,,1,,,EV Connect,GPS,41.2846114,-74.0006445,6/6/19,123056
ELEC,Bear Mountain Inn and Overlook Lodge,3020 Seven Lakes Dr,,Bear Mountain,NY,10911,Orange,J1772,,,4,,,EV Connect,GPS,41.3130514,-73.9898898,6/6/19,123098
ELEC,Rockland Nissan,608 Route 303,,Blauvelt,NY,10913,Rockland,J1772,,,1,,,,200-9,41.071072,-73.950866,7/9/18,44325
ELEC,Woodbury Common Premium Outlets,498 Red Apple Ct,,Central Valley,NY,10917,Orange,CHADEMO J1772 J1772COMBO,,,2,4,,eVgo Network,GPS,41.313472,-74.125,7/31/19,93221
ELEC,Glenmere Mansion - Tesla Destination,634 Pine Hill Rd,,Chester,NY,10918,Orange,TESLA,,,2,,,Tesla Destination,200-9,41.338768,-74.322712,5/9/19,114922
ELEC,GOSHEN EVCS #1A,128 W Main St,STATION 1,Goshen,NY,10924,Orange,J1772,,,2,,,ChargePoint Network,GPS,41.4019504,-74.32651,6/12/19,86281
ELEC,JATC LU 363,67 Commerce Dr S,LU 363 1; Second Left After You Enter The Parking Lot,Harriman,NY,10926,Orange,J1772,,,2,,,ChargePoint Network,GPS,41.3092555,-74.1330773,6/12/19,63202
ELEC,O. C. BMW,101 Maher Ln,STATION 01,Harriman,NY,10926,Orange,J1772,,,2,,,ChargePoint Network,GPS,41.3149057,-74.1391572,6/12/19,62150
ELEC,"HAVERSTRAW, NY",40 New Main St,NS1-STATION#1; Located in Municipal parking lot across from Village Hall.  Access from Maple between W Broad St and New Main St,Haverstraw,NY,10927,Rockland,J1772,,,2,,,ChargePoint Network,GPS,41.196841,-73.966883,6/12/19,52023
ELEC,VILLAGE HF,378-390 Main St,HGHLAND FALLS,Highland Falls,NY,10928,Orange,J1772,,,2,,,ChargePoint Network,GPS,41.3725703,-73.9641037,6/12/19,98732
ELEC,COMPASS VW,200 Dolson Ave,WV_408157_A; -,Middletown,NY,10940,Orange,J1772,,,2,,,ChargePoint Network,GPS,41.4271057,-74.4278898,6/12/19,64159
ELEC,Clemson Bros Brewery - Tesla Destination,22 Cottage St,,Middletown,NY,10940,Orange,TESLA,,,3,,,Tesla Destination,200-9,41.446952,-74.415608,5/9/19,114975
ELEC,Home2 Suites by Hilton Middletown - Tesla Destination,600 Route 211 E,,Middletown,NY,10941,Orange,TESLA,,,2,,,Tesla Destination,200-9,41.462968,-74.368183,5/9/19,114976
ELEC,Days Inn,367 NY-59,,Nanuet,NY,10954,Rockland,J1772,,,2,,,EV Connect,200-9,41.102018,-74.02801,5/9/19,94851
ELEC,The Shops at Nanuet,75 S Middletown Rd,,Nanuet,NY,10954,Rockland,CHADEMO J1772COMBO,,,,12,,eVgo Network,GPS,41.094148,-74.01297,7/31/19,122801
ELEC,WW BMW,125 NY-59,STATION 02; Front left unit,Nanuet,NY,10954,Rockland,J1772,,,2,,,ChargePoint Network,GPS,41.1073367,-74.0372434,6/12/19,120837
ELEC,Nissan Kia - Middletown,4961 Route 17M,,New Hampton,NY,10958,Orange,J1772,,,1,,,,200-9,41.40859,-74.413372,7/9/18,44358
ELEC,PALISADES VW,115 NY-59,VW_408110_A,Nyack,NY,10960,Rockland,J1772,,,2,,,ChargePoint Network,GPS,41.093888,-73.9402778,6/12/19,65328
ELEC,Veteran's Municipal Parking Lot,111 Main St,,Nyack,NY,10960,Rockland,J1772,,,1,,,EV Connect,GPS,41.090931,-73.91985,6/6/19,123060
ELEC,Orangetown Town Hall,26 W Orangeburg Rd,,Orangeburg,NY,10962,Rockland,J1772,,,2,,,EV Connect,GPS,41.0464984,-73.9559123,6/6/19,123089
ELEC,BLUE HILL PLAZA,1 Blue Hill Plaza,STATION 1; -,Pearl River,NY,10965,Rockland,J1772,,,2,,,ChargePoint Network,GPS,41.0476995,-74.0066207,6/12/19,121661
ELEC,WIDE WORLD BMW,114 NY-59,STATION 01,Spring Valley,NY,10977,Rockland,J1772,,,2,,,ChargePoint Network,GPS,41.1070505,-74.0358532,6/12/19,61091
ELEC,WW BMW,125 NY-59,STATION 01; Front right unit ,Spring Valley,NY,10977,Rockland,J1772,,,2,,,ChargePoint Network,GPS,41.1072905,-74.0371694,6/12/19,120820
ELEC,Leo Kaytes Ford,145 Route 94 S,,Warwick,NY,10990,Orange,J1772,,,2,,,,200-9,41.237296,-74.379503,4/8/19,63618
ELEC,VILLAGE WARWICK,16 South St,SOUTH ST LOT,Warwick,NY,10990,Orange,J1772,,,2,,,ChargePoint Network,GPS,41.2572614,-74.3585834,6/12/19,120968
ELEC,Great Neck Nissan,250 Northern Blvd,,Great Neck,NY,11021,Nassau,J1772,,,1,,,,200-9,40.776979,-73.727234,7/9/18,70453
ELEC,GREATNECK PLAZA,2 Gussack Plaza,"PLAZA CENTER; Village of Great Neck Plaza ""Plaza Centre"" parking garage, follow traffic flow signs back down to street level B, station to the right.",Great Neck,NY,11022,Nassau,J1772,,,2,,,ChargePoint Network,GPS,40.7874242,-73.7299994,6/12/19,81641
ELEC,Rockaway Nissan,600 Burnside Ave,,Inwood,NY,11096,Nassau,J1772,,,1,,,,200-9,40.622268,-73.742699,7/9/18,44336
ELEC,Hunter's Point South Crossing,1-55 Borden Avenue,Enter via. Borden Ave. ,Queens,NY,11101,Queens,J1772,,,2,,,Blink Network,GPS,40.742397,-73.959225,7/31/19,95054
ELEC,Court Square Municipal Parking Garage,45 Court Square,"Located between Court Square East and Court Square West (Anable Street), South of Jackson avenue behind court house",Queens,NY,11101,Queens,J1772,,,6,,,EV Connect,200-9,40.745358,-73.942642,8/7/18,65290
ELEC,Quikpark 43-08 Crescent Street - Tesla Destination,43-08 Crescent St,,New York,NY,11101,Queens,TESLA,,,2,,,Tesla Destination,200-8,40.748762,-73.942538,5/9/19,115137
ELEC,27-28 Thomson Ave Garage,45 Court Sq,,New York,NY,11101,Queens,J1772,,,8,,,EV Connect,GPS,40.745312,-73.942686,6/6/19,123112
ELEC,2702 Queens Plaza South - Tesla Destination,2702 Queens Plaza S,,Queens,NY,11101,Queens,TESLA,,,6,,,Tesla Destination,200-9,40.749893,-73.939758,5/9/19,115215
ELEC,MPG 1-50 51st Ave - Tesla Destination,1-50 51st Ave,,Long Island City,NY,11101,Queens,TESLA,,,4,,,Tesla Destination,200-9,40.742713,-73.959323,5/9/19,114968
ELEC,MTP Parking 31-00 47th Ave - Tesla Destination,31-00 47th Ave,,Long Island City,NY,11101,Queens,TESLA,,,4,,,Tesla Destination,200-8,40.742875,-73.935806,5/9/19,122487
ELEC,iPark 43-25 Hunter Street - Tesla Destination,43-25 Hunter St,,Long Island City,NY,11101,Queens,TESLA,,,8,,,Tesla Destination,200-9,40.747653,-73.942313,5/9/19,114969
ELEC,MTP Parking 41-42 24th Street - Tesla Destination,41-42 24th St,,Long Island City,NY,11101,Queens,TESLA,,,4,,,Tesla Destination,200-9,40.751815,-73.941166,5/9/19,122488
ELEC,Shore Towers,25-40 Shore Blvd,,Astoria,NY,11102,Queens,J1772,,,3,,,EV Connect,GPS,40.7765717,-73.9283585,6/6/19,123272
ELEC,19-80 Steinway - Tesla Destination,1980 Steinway St,,Queens,NY,11105,Queens,TESLA,,,4,,,Tesla Destination,GPS,40.776957,-73.90115,5/9/19,115214
ELEC,Astoria Central Parking - Tesla Destination,31-57 31st St,,Astoria,NY,11106,Queens,TESLA,,,4,,,Tesla Destination,200-8,40.762763,-73.924473,5/9/19,114881
ELEC,ProPark America Astor Broadway - Tesla Destination,29-10 Broadway,,Queens,NY,11106,Queens,TESLA,,,4,,,Tesla Destination,200-9,40.762417,-73.926985,5/9/19,122493
ELEC,Little Man Parking (Queens West) - Tesla Destination,4-76 47th Ave,,Long Island City,NY,11109,Queens,TESLA,,,2,,,Tesla Destination,200-8,40.74581,-73.955812,5/9/19,114970
ELEC,MP 225 LLC,100 Jay St,"NS1-100 JAY ST; Charger located in MPS parking garage level C, area 2A next to parking office",New York,NY,11201,Kings,J1772,,,2,,,ChargePoint Network,GPS,40.7018205,-73.9868238,6/12/19,51687
ELEC,EDISONPARKFAST,92 Livingston St,LOC # 75,new york,NY,11201,Kings,J1772,,,1,,,ChargePoint Network,GPS,40.6909201,-73.9904641,6/12/19,69709
ELEC,Standard Parking 15 Metrotech - Tesla Destination,15 Metrotech Ctr S,,Brooklyn,NY,11201,Kings,TESLA,,,2,,,Tesla Destination,200-8,40.693317,-73.9871,5/9/19,114890
ELEC,Park Kwik LLC 50 Washington St. - Tesla Destination,45 Main St,,Brooklyn,NY,11201,Kings,TESLA,,,2,,,Tesla Destination,200-9,40.702769,-73.990584,5/9/19,114906
ELEC,Rapidpark 44 State Street - Tesla Destination,44 State St,,Brooklyn,NY,11201,Kings,TESLA,,,2,,,Tesla Destination,200-8,40.691871,-73.998307,5/9/19,114905
ELEC,Standard Parking 1 Metrotech - Tesla Destination,351 Jay St,,Brooklyn,NY,11201,Kings,TESLA,,,2,,,Tesla Destination,200-9,40.693216,-73.986716,5/9/19,114900
ELEC,GGMC Parking 75 Smith St Garage - Tesla Destination,75 Smith St,,Brooklyn,NY,11201,Kings,TESLA,,,2,,,Tesla Destination,200-9,40.688799,-73.988642,5/9/19,114913
ELEC,GGMC Belltel Car Park - Tesla Destination,356 Bridge St,,Brooklyn,NY,11201,Kings,TESLA,,,2,,,Tesla Destination,200-8,40.692645,-73.985451,5/9/19,114901
ELEC,Standard Parking 2 Metrotech - Tesla Destination,8 Metrotech Ctr S,,Brooklyn,NY,11201,Kings,TESLA,,,2,,,Tesla Destination,200-8,40.692919,-73.987193,5/9/19,114914
ELEC,Standard Parking Pierepoint Plaza - Tesla Destination,300 Cadman,,Brooklyn,NY,11201,Kings,TESLA,,,2,,,Tesla Destination,GPS,40.695115,-73.990993,5/9/19,114896
ELEC,1 Hotel Brooklyn Bridge - Tesla Destination,60 Furman St,,Brooklyn,NY,11201,Kings,TESLA,,,5,,,Tesla Destination,200-9,40.702241,-73.995539,5/9/19,114908
ELEC,Quik Park 81 Fleet Place LLC - Tesla Destination,81 Fleet Pl,,Brooklyn,NY,11201,Kings,TESLA,,,2,,,Tesla Destination,200-9,40.693208,-73.981326,5/9/19,114915
ELEC,Enterprise 309 Gold Street - Tesla Destination,309 Gold St,,Brooklyn,NY,11201,Kings,TESLA,,,2,,,Tesla Destination,200-9,40.695013,-73.982843,5/9/19,114897
ELEC,GMC 388 Bridge Street - Tesla Destination,388 Bridge St,,Brooklyn,NY,11201,Kings,TESLA,,,3,,,Tesla Destination,200-9,40.691652,-73.985733,5/9/19,114903
ELEC,Brooklyn Renaissance Plaza - Muss Properties,335 Adams St,,Brooklyn,NY,11201,Kings,J1772,,,3,,,EV Connect,200-9,40.693507,-73.988425,5/9/19,121863
ELEC,Parkright 257 Gold Street - Tesla Destination,257 Gold St,,Brooklyn,NY,11201,Kings,TESLA,,,2,,,Tesla Destination,200-9,40.696871,-73.983002,5/9/19,114895
ELEC,Quik Park Brooklyn Bridge LLC - Tesla Destination,4 Joralemon St,,Brooklyn,NY,11201,Kings,TESLA,,,2,,,Tesla Destination,200-8,40.693949,-74.00025,5/9/19,114904
ELEC,Greenlots - 92133,581 Clarkson Ave,,Brooklyn,NY,11203,Kings,J1772,,,2,,,Greenlots,200-9,40.656148,-73.940355,7/29/19,99290
ELEC,Kings County Parking - Tesla Destination,581 Clarkson Ave,,Brooklyn,NY,11203,Kings,TESLA,,,2,,,Tesla Destination,200-9,40.656148,-73.940355,5/9/19,114907
ELEC,Brooklyn Navy Yard,63 Flushing Ave,,Brooklyn,NY,11205,Kings,J1772,,,8,,,EV Connect,200-8,40.698235,-73.975114,5/9/19,94832
ELEC,Quik Park Armory Parking Inc. - Tesla Destination,172 Vanderbilt,,Brooklyn,NY,11205,Kings,TESLA,,,2,,,Tesla Destination,200-8,40.692372,-73.969893,5/9/19,114891
ELEC,New Lab,19 Morris Ave,,Brooklyn,NY,11205,Kings,J1772,,,2,,,EV Connect,GPS,40.69953,-73.974315,6/6/19,123075
ELEC,New York City Transit Authority - Surface Transit Headquarters,25 Jamaica Ave,,Brooklyn,NY,11207,Kings,J1772,,,1,,,EV Connect,GPS,40.678067,-73.8997292,6/6/19,123088
ELEC,Bay Ridge Municipal Parking Garage,8501 5th Ave,Located on the 3rd floor,Brooklyn,NY,11209,Kings,J1772,,,5,,,EV Connect,200-8,40.62215,-74.02565,5/9/19,65288
ELEC,"Littleman Driggs Parking, LLC - Tesla Destination",626 Driggs Ave,,Brooklyn,NY,11211,Kings,TESLA,,,2,,,Tesla Destination,200-9,40.715405,-73.958638,5/9/19,114910
ELEC,imPark 101 Bedford Ave - Tesla Destination,101 Bedford Ave,,Brooklyn,NY,11211,Kings,TESLA,,,2,,,Tesla Destination,200-9,40.720014,-73.95455,5/9/19,114918
ELEC,iPark 22/34 N 6th Garage Corp - Tesla Destination,22 N 5th St,,Brooklyn,NY,11211,Kings,TESLA,,,3,,,Tesla Destination,200-8,40.718794,-73.962594,5/9/19,114893
ELEC,Sherman Parking - Tesla Destination,26 S 6th St,,Brooklyn,NY,11211,Kings,TESLA,,,4,,,Tesla Destination,200-8,40.711558,-73.967572,5/9/19,122472
ELEC,MTP Parking 568 Union Ave - Tesla Destination,568 Union Ave,,Brooklyn,NY,11211,Kings,TESLA,,,4,,,Tesla Destination,200-9,40.717801,-73.951805,5/9/19,122477
ELEC,Walgreens,589 Prospect Ave,,Brooklyn,NY,11215,Kings,CHADEMO J1772 J1772COMBO,,,1,2,,eVgo Network,GPS,40.65678,-73.97776,7/31/19,93308
ELEC,Whole Foods Market Third and 3rd Station 2,214  3rd St,,Brooklyn,NY,11215,Kings,J1772,,,1,,,GE WattStation,GPS,40.67524162,-73.9886306,7/31/19,72939
ELEC,Whole Foods Market Third and 3rd Station 1,214  3rd St,,Brooklyn,NY,11215,Kings,J1772,,,1,,,GE WattStation,GPS,40.6751862,-73.9885306,7/31/19,72964
ELEC,GE WattStation,214  3rd St,,Brooklyn,NY,11215,Kings,J1772,,,1,,,GE WattStation,GPS,40.6753309,-73.9885628,7/31/19,73056
ELEC,GOWANUS,214 3rd St,WHOLE FOODS 1; Near front door of Whole Foods WHOLE FOODS 2,Brooklyn,NY,11215,Kings,J1772,,,4,,,ChargePoint Network,200-9,40.675124,-73.988492,6/12/19,85460
ELEC,IMPark 353 4th Ave - Tesla Destination,353 4th Ave,,Brooklyn,NY,11215,Kings,TESLA,,,4,,,Tesla Destination,200-8,40.672845,-73.986284,5/9/19,122475
ELEC,ImPark 500 4th Ave - Tesla Destination,212 12th St,,Brooklyn,NY,11215,Kings,TESLA,,,4,,,Tesla Destination,200-8,40.668403,-73.990389,5/9/19,122471
ELEC,"Walgreens - Brooklyn, NY #15097",589 Prospect Avenue,"$2.00 first hour, billed at start. $2.00 per plug hour thereafter.",Brooklyn,NY,11215,Kings,J1772,,,1,,,SemaCharge Network,GPS,40.6567801,-73.9777597,7/31/19,103930
ELEC,Rapidpark 906 Union Street - Tesla Destination,906 Union St,,Brooklyn,NY,11215,Kings,TESLA,,,2,,,Tesla Destination,200-9,40.672726,-73.971664,5/9/19,114916
ELEC,Standard Parking 1360 Fulton Street - Tesla Destination,1360 Fulton St,,Brooklyn,NY,11216,Kings,TESLA,,,2,,,Tesla Destination,200-9,40.679983,-73.946504,5/9/19,114889
ELEC,ImPark Atlantic Terrace - Tesla Destination,669 Atlantic Ave,,Brooklyn,NY,11217,Kings,TESLA,,,4,,,Tesla Destination,200-8,40.683295,-73.973753,5/9/19,122478
ELEC,Atlantic Center - Tesla Supercharger,162 Fort Greene Pl,,Brooklyn,NY,11217,Kings,TESLA,,,,12,,Tesla,GPS,40.684786,-73.976038,,127959
ELEC,Discount Parking 180 Ashland Place - Tesla Destination,180 Ashland Pl,,Brooklyn,NY,11217,Kings,TESLA,,,2,,,Tesla Destination,200-8,40.689411,-73.978741,5/9/19,114892
ELEC,GGMC Parking 66 Rockwell Pl Garage - Tesla Destination,66 Rockwell Pl,,Brooklyn,NY,11217,Kings,TESLA,,,2,,,Tesla Destination,200-8,40.68806,-73.979449,5/9/19,114911
ELEC,Bay Ridge Nissan,6501 5th Ave,,Brooklyn,NY,11220,Kings,J1772,,,1,,,,200-9,40.636324,-74.019228,7/9/18,44327
ELEC,Standard Parking 200 Cadman Plaza West - Tesla Destination,75 Henry St,,Brooklyn,NY,11221,Kings,TESLA,,,2,,,Tesla Destination,200-9,40.698807,-73.991859,5/9/19,114912
ELEC,Parking Garage,59 Paidge Ave,,Brooklyn,NY,11222,Kings,J1772,,,10,,,EV Connect,200-9,40.737171,-73.949257,5/9/19,94831
ELEC,Brooklyn Museum - Tesla Supercharger,878 Washington Avenue,,Brooklyn,NY,11225,Kings,TESLA,,,,10,,Tesla,200-8,40.668595,-73.962204,5/9/19,122247
ELEC,TAPPS,2213 Gerritsen Ave,"KEY FOOD; Intersection of Gerritsen Ave, Knapp St &amp; Avenue U",Brooklyn,NY,11229,Kings,J1772,,,2,,,ChargePoint Network,GPS,40.6015954,-73.9346045,6/12/19,67704
ELEC,IKEA - Brooklyn,One Beard St,,Brooklyn,NY,11231,Kings,J1772,,,4,,,Blink Network,GPS,40.672247,-74.011183,7/31/19,95209
ELEC,BOND OPERATING,363 Bond St,"STATION A STATION C; Please see parking attendant, fees for parking may apply",Gowanus,NY,11231,Kings,J1772,,,2,,,ChargePoint Network,200-9,40.677977,-73.990135,6/12/19,96922
ELEC,Quik Park 365 Management LLC - Tesla Destination,365 Bond St,,Brooklyn,NY,11231,Kings,TESLA,,,2,,,Tesla Destination,200-9,40.677433,-73.990299,5/9/19,114902
ELEC,MTP Parking 363 Bond Street - Tesla Destination,363 Bond St,,Brooklyn,NY,11231,Kings,TESLA,,,4,,,Tesla Destination,200-9,40.677977,-73.990135,5/9/19,122476
ELEC,INDUSTRY CITY,147 41st  St,BASEMENT 20 A BASEMENT 20 B,Sunset Park,NY,11232,Kings,J1772,,,4,,,ChargePoint Network,200-8,40.654857,-74.012496,6/12/19,120865
ELEC,INDUSTRY CITY,533 2nd Ave,LOT B EAST; Parking Lot C LOT B WEST; Parking lot B,Brooklyn,NY,11232,Kings,J1772,,,4,,,ChargePoint Network,200-9,40.65877,-74.005029,6/12/19,122592
ELEC,ATA HOUSING,249 Thomas S Boyland St,"BOYLAN ST. 2; In underground parking garage at Pacific St. entrance on the left side, between spaces #408 &amp; 409",Brooklyn,NY,11233,Kings,J1772,,,2,,,ChargePoint Network,GPS,40.675072,-73.9131319,6/12/19,57799
ELEC,Kings Nissan,2758 Coney Island Ave,,Brooklyn,NY,11235,Kings,J1772,,,1,,,,200-9,40.589167,-73.960707,7/9/18,44329
ELEC,THE VUE,1809 Emmons Ave,THE VUE DC; Charger Only Available Through Valet Service,Brooklyn,NY,11235,Kings,CHADEMO J1772COMBO,,,,2,,ChargePoint Network,GPS,40.5837551,-73.9501228,6/12/19,85440
ELEC,ImPark Underhill Garage - Tesla Destination,105 Underhill Ave,,Brooklyn,NY,11238,Kings,TESLA,,,4,,,Tesla Destination,200-9,40.67746,-73.965421,5/9/19,122469
ELEC,iPark 247 N 7th Street - Tesla Destination,249 N 7th St,,Brooklyn,NY,11248,Kings,TESLA,,,2,,,Tesla Destination,200-9,40.716085,-73.954508,5/9/19,114894
ELEC,iPark 386 E 48th Street - Tesla Destination,386 E 48th St,,New York,NY,11248,Kings,TESLA,,,2,,,Tesla Destination,200-8,40.751772,-73.964999,5/9/19,115115
ELEC,ProPark 184 Kent Ave - Tesla Destination,184 Kent Ave,,Brooklyn,NY,11249,Kings,TESLA,,,4,,,Tesla Destination,200-9,40.718763,-73.964599,5/9/19,122470
ELEC,MTP Parking 755 Kent Ave - Tesla Destination,755 Kent Ave,,Brooklyn,NY,11249,Kings,TESLA,,,4,,,Tesla Destination,200-8,40.698959,-73.9601,5/9/19,122479
ELEC,BEAM CHARGING,444 Kent Ave,444 KENT AVENUE; See valet attendant to use charging station.,Brooklyn,NY,11249,Kings,J1772,,,2,,,ChargePoint Network,GPS,40.7091577,-73.9684904,6/12/19,102686
ELEC,City Parking Linc Garage - Tesla Destination,62 Northside Piers,,Brooklyn,NY,11249,Kings,TESLA,,,2,,,Tesla Destination,200-8,40.71955,-73.96413,5/9/19,114909
ELEC,iPark 34 N 7th Street - Valet - Tesla Destination,34 N 7th St,,Brooklyn,NY,11249,Kings,TESLA,,,8,,,Tesla Destination,200-9,40.720475,-73.96265,5/9/19,122474
ELEC,The William Vale Hotel - Tesla Destination,111 N 12th St,,Brooklyn,NY,11249,Kings,TESLA,,,4,,,Tesla Destination,200-8,40.722362,-73.957208,5/9/19,114919
ELEC,North 12 Parking (at the William Vale) - Tesla Supercharger,113 N. 12th Street,At the William Vale,Brooklyn,NY,11249,Kings,TESLA,,,,4,,Tesla,200-8,40.722344,-73.957179,5/9/19,102327
ELEC,iPark 34 N 7th Street - Tesla Destination,34 N 7th St,,Brooklyn,NY,11249,Kings,TESLA,,,2,,,Tesla Destination,200-9,40.720475,-73.96265,5/9/19,122473
ELEC,iPark NYC 2234 North 6th - Tesla Destination,34 North 6th St,,Brooklyn,NY,11249,Kings,TESLA,,,2,,,Tesla Destination,200-9,40.719756,-73.962933,5/9/19,114898
ELEC,MPG The Shops at Skyview - Tesla Destination,40-24 College Point Blvd,,Flushing,NY,11354,Queens,TESLA,,,3,,,Tesla Destination,200-9,40.756893,-73.834158,5/9/19,114939
ELEC,Sylvan Kissena Garage LLC - Tesla Destination,43-70 Kissena Blvd,,Flushing,NY,11355,Queens,TESLA,,,4,,,Tesla Destination,200-9,40.753639,-73.823616,5/9/19,122481
ELEC,KISSENA GARAGE,43-70 Kissena Boulevard,,Flushing,NY,11355,Queens,J1772,,,1,,,Blink Network,GPS,40.753624,-73.823573,7/31/19,102669
ELEC,The Lovett Group,109-15 14th Ave,,College Point,NY,11356,Queens,J1772,,,8,,,EV Connect,200-8,40.785772,-73.857401,5/9/19,94836
ELEC,Star Nissan,20602 Northern Blvd,,Bayside,NY,11361,Queens,J1772,,,1,,,,200-8,40.758245,-73.776954,7/9/18,44323
ELEC,7-Eleven,5820 Francis Lewis Blvd,,Oakland Gardens,NY,11364,Queens,CHADEMO J1772COMBO,,,,2,,eVgo Network,GPS,40.744883,-73.77711,7/31/19,93250
ELEC,QUEENS COLLEGE,153-26 61st Rd,NS1-STATION3; Queens College Parking Lot 15S (south),Queens,NY,11367,Queens,J1772,,,2,,,ChargePoint Network,GPS,40.7385319,-73.8172036,6/12/19,76289
ELEC,QUEENS COLLEGE,153-23 61st Rd,NS1-STATION2; Queens College Parking Lot 15N (north),Queens,NY,11367,Queens,J1772,,,2,,,ChargePoint Network,GPS,40.7388662,-73.8171461,6/12/19,76288
ELEC,QUEENS COLLEGE,152-50 Melbourne Ave,NS1-STATION1; Located in parking lot,Flushing,NY,11367,Queens,J1772,,,2,,,ChargePoint Network,GPS,40.734525,-73.81793,6/12/19,52021
ELEC,Queens College - Kiely Hall,65-30 Kissena Blvd,,Queens,NY,11367,Queens,J1772,,,2,,,EV Connect,GPS,40.7358738,-73.8158194,6/6/19,123127
ELEC,Hampton Inn LaGuardia Airport - Tesla Destination,102-40 Ditmars Blvd,,East Elmhurst,NY,11369,Queens,TESLA,,,1,,,Tesla Destination,200-9,40.767871,-73.867659,5/9/19,114937
ELEC,PANYNJ,LGA West Garage LaGuardia Airport,LGA WEST 3; - LGA WEST 4; -,East Elmhurst,NY,11371,Queens,J1772,,,2,,,ChargePoint Network,GPS,40.7729769,-73.875474,6/12/19,122624
ELEC,PANYNJ,LGA West Garage LaGuardia Airport,LGA WEST 1; Terminal B parking garage LGA WEST 2; - LGA WEST 5; -,Flushing,NY,11371,Queens,J1772,,,3,,,ChargePoint Network,GPS,40.7731161,-73.8749771,6/12/19,122623
ELEC,PANYNJ,East Garage E End Rd LaGuardia Airport,"LGA E GARAGE C1; LGA East garage, center section LGA E GARAGE E1; LGA East Garage, East end LGA E GARAGE W1; LGA East Garage, West End",New York,NY,11371,Queens,J1772,,,6,,,ChargePoint Network,GPS,40.7707522,-73.866327,6/12/19,119077
ELEC,Koeppel Nissan,74-15 Northern Blvd,,Jackson Heights,NY,11372,Queens,CHADEMO J1772 J1772COMBO,,,1,1,,,200-9,40.755072,-73.892094,7/9/18,85969
ELEC,Excel Parking 87-10 Northern Blvd - Tesla Destination,87-10 Northern Blvd,,Jackson Heights,NY,11372,Queens,TESLA,,,4,,,Tesla Destination,200-9,40.755829,-73.880211,5/9/19,122482
ELEC,Queens Center - Tesla Supercharger,90-15 Queens Boulevard,,Queens,NY,11373,Queens,TESLA,,,,10,,Tesla,GPS,40.735238,-73.870423,5/9/19,116809
ELEC,iPark - Paradise Garage,62-60 99th Street,Attendant will assist in charging  vehicle.  Parking rates apply. Inquire  within. ,Rego Park,NY,11374,Queens,J1772,,,2,,,Blink Network,GPS,40.733347,-73.858012,7/31/19,95270
ELEC,Office Building,35 Queens Blvd,,Forest Hills,NY,11375,Queens,J1772,,,2,,,EV Connect,GPS,40.71567106,-73.83040221,5/3/18,94839
ELEC,Sylvan Parking - Pinnacle Garage,112-01 Queens Boulevard,Charger is located 1 floor below street  level ,Forest Hills,NY,11375,Queens,J1772,,,1,,,Blink Network,GPS,40.718455,-73.83651,7/31/19,95615
ELEC,Sylvan Gerard Garage - Tesla Destination,70-25 Yellowstone Blvd,,Queens,NY,11375,Queens,TESLA,,,4,,,Tesla Destination,200-9,40.72216,-73.849258,5/9/19,122494
ELEC,ProPark 110-45 Queens Blvd - Tesla Destination,110-45 Queens Blvd,,Queens,NY,11375,Queens,TESLA,,,4,,,Tesla Destination,200-9,40.719717,-73.83882,5/9/19,122492
ELEC,Sylvan Pinnacle Garage - Tesla Destination,112-01 Queens Blvd,,Forest Hills,NY,11375,Queens,TESLA,,,4,,,Tesla Destination,200-9,40.726421,-73.851406,5/9/19,114940
ELEC,Gerard Garage,70-25 Yellowstone Boulevard,,Forest Hills,NY,11375,Queens,J1772,,,1,,,Blink Network,GPS,40.733279,-73.334993,7/31/19,124570
ELEC,Art Delta New York,25-20 Brooklyn Queens Expy,,Woodside,NY,11377,Queens,J1772,,,2,,,EV Connect,200-8,40.763555,-73.896042,5/9/19,94869
ELEC,PV Parking 40-07 73rd St - Tesla Destination,40-07 73rd St,,Woodside,NY,11377,Queens,TESLA,,,4,,,Tesla Destination,200-9,40.746539,-73.892004,5/9/19,115251
ELEC,MASPETH FEDERAL,56-18 69th St,MASPETH 1; -,Maspeth,NY,11378,Queens,J1772,,,2,,,ChargePoint Network,GPS,40.7262317,-73.8957051,6/12/19,104575
ELEC,Grand Ave Bus Depot & Central Maintenance Facility,4805 Grand Ave,,Maspeth,NY,11378,Queens,J1772,,,1,,,EV Connect,GPS,40.7174257,-73.9202355,6/6/19,123115
ELEC,The Shops at Atlas Park - Tesla Supercharger,8000 Cooper Ave,,Glendale,NY,11385,Queens,TESLA,,,,10,,Tesla,GPS,40.708177,-73.867301,,127960
ELEC,New York and Atlantic Railway Fresh Pond Yard,68-01 Otto Rd,,Glendale,NY,11385,Queens,J1772,,,2,,,EV Connect,GPS,40.7062312,-73.8864871,6/6/19,123128
ELEC,BEAM CHARGING / KEW GARAGE,80-02 Kew Gardens Rd,,Kew Gardens,NY,11415,Queens,J1772,,,1,,,Blink Network,GPS,40.713705,-73.831217,7/31/19,95431
ELEC,Queens Borough Hall - Municipal Parking Lot,80-25 126th St,,Queens,NY,11415,Queens,J1772,,,4,,,EV Connect,GPS,40.714376,-73.826095,6/6/19,123134
ELEC,125-10 Queens Blvd Garage - Tesla Destination,123 83rd Ave,,Kew Gardens,NY,11415,Queens,TESLA,,,4,,,Tesla Destination,GPS,40.7119045,-73.8267727,5/9/19,122483
ELEC,Nissan of Queens,9325 Rockaway Blvd,,Ozone Park,NY,11417,Queens,J1772,,,1,,,,200-9,40.68117,-73.845621,7/9/18,49938
ELEC,Spectrum,133-19 Atlantic Ave,,Jamaica,NY,11418,Queens,J1772,,,2,,,EV Connect,200-8,40.696909,-73.816114,5/9/19,94844
ELEC,PANYNJ,JFK Access Rd JFK International Airport,JFK YELLOW GRG1; - JFK YELLOW GRG2; - JFK YELLOW GRG3; - JFK YELLOW GRG4; - JFK YELLOW GRG5; -,Jamaica,NY,11430,Queens,J1772 ,,5,5,,,ChargePoint Network,GPS,40.6460342,-73.7795258,6/12/19,122625
ELEC,JFK Airport Travel Plaza - Tesla Supercharger,150th Ave and 147th St,,Queens,NY,11430,Queens,TESLA,,,,4,,Tesla,GPS,40.66196979,-73.79275927,5/9/19,102341
ELEC,Nemet Motors,153-12 Hillside Ave,,Jamaica,NY,11432,Queens,J1772,,,1,,,,200-9,40.707242,-73.803844,7/9/18,44342
ELEC,Queens Family Court Garage,150-07 Archer St,,Queens,NY,11433,Queens,J1772,,,3,,,EV Connect,GPS,40.7044805,-73.7927244,6/6/19,123069
ELEC,Queens Family Court Municipal Garage,149-15 Archer Ave,,Jamaica,NY,11435,Queens,J1772,,,3,,,EV Connect,200-9,40.7015,-73.804703,5/3/18,94857
ELEC,BMW FREEPORT,100 Cleveland Ave,STATION 01; -,Freeport,NY,11520,Nassau,J1772,,,2,,,ChargePoint Network,GPS,40.6542078,-73.5691342,6/12/19,96981
