Fuel Type Code,Station Name,Street Address,City,State,ZIP,Stations,Groups With Access Code,EV Network,Latitude,Longitude,Date Last Confirmed,ID,EV Connector Types,Access Code
ELEC,Ramada,1319 2nd St W,Brooks,AB,T1R 1P7,1,Public,,50.585242,-111.898615,12/11/18,82833,J1772,public
ELEC,Davis Chevrolet,149 E Lake Cres NE,Airdrie,AB,T4A 2H9,1,Public,,51.288119,-113.998284,12/11/18,82834,J1772,public
ELEC,Go Nissan South,1275 101 St SW,Edmonton,AB,T6X 1A1,1,Public - Call ahead,,53.421352,-113.49069,6/11/18,82835,J1772,public
ELEC,Don Wheaton Chevrolet,10727 - 82 Ave,Edmonton,AB,T6E 2B1,1,Public - Call ahead,,53.517704,-113.507252,6/11/18,82836,J1772,public
ELEC,Gasonic Instruments,8-823 41st Ave NE,Calgary,AB,T2E 6Y3,1,Public - Call ahead,,51.092856,-114.043029,12/11/18,82837,J1772,public
ELEC,International Motor Cars,7220 Railway St SE,Calgary,AB,T2H 3A8,1,Public - Call ahead,,50.990495,-114.042414,12/11/18,82838,J1772,public
ELEC,Residence Inn,3710 Market St SE,Calgary,AB,T3M 2P2,1,Public - Call ahead,,50.88028294,-113.9558735,12/11/18,82839,J1772,public
ELEC,Platinum Mitsubishi,2720 Barlow Trail NE,Calgary,AB,T1Y 1A1,1,Public - Call ahead,,51.07626274,-114.0002598,6/11/18,82840,J1772,public
ELEC,Okotoks Municipal Centre,5 Elizabeth St,Okotoks,AB,T1S 2K1,1,Public,,50.725129,-113.975283,12/11/18,82898,J1772,public
ELEC,Bear Street Parkade,128 Bear St,Banff,AB,T1L 1A1,1,Public,,51.175795,-115.572164,5/7/18,83035,J1772,public
ELEC,Accutech Rentals,9730 32nd Ave NW,Edmonton,AB,T6N 1L9,1,Public,,53.464353,-113.481575,12/11/18,83514,J1772,public
ELEC,Alberco,14 Rayborn Cres,St. Albert,AB,T8N 4B1,1,Public,,53.622373,-113.642141,12/11/18,83515,J1772,public
ELEC,Banff Park Lodge,222 Lynx St,Banff,AB,T1L 1K5,1,Public,,51.177928,-115.573617,12/11/18,83516,J1772,public
ELEC,Best Western Plus,50 Westpark Blvd,Fort Saskatchewan,AB,T8L 0B2,1,Public,,53.680736,-113.247995,12/11/18,83517,J1772,public
ELEC,Best Western Premier Denham Inn & Suites,5207 50th Ave,Leduc,AB,T9E 6V3,1,Public,,53.264188,-113.558316,1/3/18,83518,J1772,public
ELEC,Canadian Tire,2110 101st St NW,Edmonton,AB,T6N 1J2,1,Public,,53.451523,-113.487793,12/11/18,83522,J1772,public
ELEC,Competition Chevrolet,40 Boulder Blvd,Stony Plain,AB,T7Z 1V7,1,Public,,53.542013,-113.990121,12/11/18,83609,J1772,public
ELEC,Delta Lodge at Kananaskis,1 Centennial Dr,Kananaskis,AB,T0L 2H0,1,Public,,50.91809835,-115.1463782,5/7/18,83621,J1772,public
ELEC,Moose Hotel & Suites,345 Banff Ave,Banff,AB,T1L 1H8,1,Public,,51.180729,-115.569795,12/11/18,83624,J1772,public
ELEC,Murray Chevrolet,2815 26th Ave S,Lethbridge,AB,T1K 7K7,1,Public - Call ahead,,49.667953,-112.800603,12/11/18,83625,J1772,public
ELEC,Sawridge Inn and Conference Centre,76 Connaught Dr,Jasper,AB,T0E 1E0,1,Public,,52.890682,-118.076271,12/11/18,83692,J1772,public
ELEC,Fairmount Lake Louise,111 Lake Louise Dr,Lake Louise,AB,T0L 1E0,1,Public - Call ahead,,51.41771,-116.216893,12/11/18,83698,J1772,public
ELEC,Schwab Chevrolet Buick GMC Corvette,6503 Sparrow Dr,Leduc,AB,T9E 7C7,1,Public - Call ahead,,53.280251,-113.545447,12/11/18,83713,J1772,public
ELEC,Sherwood Nissan,10 Broadway Blvd,Sherwood Park,AB,T8H 2A2,1,Public - Call ahead,,53.5449,-113.319101,12/11/18,83714,J1772,public
ELEC,Royal Oak Nissan,7690 110th Ave NW,Calgary,AB,T3R 1R8,1,Public - Call ahead,,51.153652,-114.19546,12/11/18,83718,J1772,public
ELEC,Coast Edmonton Plaza Hotel,10155 105th St NW,Edmonton,AB,T5J 1E2,1,Public - Call ahead,,53.542205,-113.500575,12/11/18,83768,J1772,public
ELEC,Edmonton Public Library - Jasper Place Branch,9010 156th St NW,Edmonton,AB,T5R 5X7,1,Public,,53.523582,-113.590729,12/11/18,83804,J1772,public
ELEC,Edmonton Public Library - Mill Woods Branch,2610 Hewes Way NW,Edmonton,AB,T6L 0A9,1,Public,,53.4566,-113.427401,12/11/18,83806,J1772,public
ELEC,Edmonton Remand Centre,18415 127 St NW,Edmonton,AB,T6V 1B1,1,Private,,53.64533024,-113.5388692,6/11/18,83807,J1772,private
ELEC,Father Henri Voisin School,60 Clearview Dr,Red Deer,AB,T4P 0K3,1,Public,,52.283435,-113.774078,6/11/18,83808,J1772,public
ELEC,Four Points by Sheraton,10010 12th Ave SW,Edmonton,AB,T6X 0P9,1,Public,,53.422857,-113.487463,12/11/18,83837,J1772,public
ELEC,Hampton Inn,2510 Box Springs Blvd NW,Medicine Hat,AB,T1C 0C8,1,Public,,50.068512,-110.745534,12/11/18,83838,J1772,public
ELEC,Peavey Industries,7740 40 Ave,Red Deer,AB,T4P 2H9,1,Public,,52.306241,-113.791503,6/11/18,83839,J1772,public
ELEC,IKEA,1311 102nd St NW,Edmonton,AB,T6N 1M3,1,Public,,53.443099,-113.489439,12/11/18,83916,J1772,public
ELEC,Kal Tire,2671 Box Springs Way NW,Medicine Hat,AB,T1B 2R4,1,Public,,50.066173,-110.734305,12/11/18,83920,J1772,public
ELEC,King's University,9125 50th St NW,Edmonton,AB,T6B 2H3,1,Public,,53.525675,-113.417237,12/11/18,83921,J1772,public
ELEC,Main Street Hardware,4420 Railway Ave,Vermilion,AB,T9X 1G1,1,Public,,53.350693,-110.835833,1/3/18,83922,J1772,public
ELEC,Peavey Mart,5710 40th Ave,Wetaskiwin,AB,T9A 2B2,1,Public,,52.959878,-113.394014,1/3/18,83925,J1772,public
ELEC,Peavey Mart,10211 100 St,Westlock,AB,T7P 2G5,1,Public,,54.151088,-113.852204,1/3/18,83926,J1772,public
ELEC,Peavey Mart,5338 50th Ave,Vegreville,AB,T9C 1M3,1,Public,,53.498559,-112.062161,1/3/18,83927,J1772,public
ELEC,Peavey Mart,300 Edgefield Pl,Strathmore,AB,T1P 0E9,1,Public,,51.03803705,-113.374763,1/3/18,83928,J1772,public
ELEC,Peavey Mart,6690 - 50th Ave,Stettler,AB,T0C 2L2,1,Public,,52.325027,-112.734922,1/3/18,83929,J1772,public
ELEC,Peavey Mart,161 Century Crossing,Spruce Grove,AB,T7K 0M9,1,Public,,53.542309,-113.873683,1/3/18,83931,J1772,public
ELEC,Peavey Mart,5127 50th St,Rocky Mountain House,AB,T4T 1G7,1,Public,,52.377098,-114.918778,1/3/18,83932,J1772,public
ELEC,Peavey Mart,2410 50 Ave,Red Deer,AB,T4R 1M3,1,Public,,52.242732,-113.815179,1/3/18,83933,J1772,public
ELEC,Peavey Mart,7700 99 Ave,Peace River,AB,T8S 2A2,1,Public,,56.23328996,-117.3155281,1/3/18,83934,J1772,public
ELEC,Peavey Mart,64 Carry Dr SE,Medicine Hat,AB,T1B 4E1,1,Public,,50.005923,-110.648279,1/3/18,83935,J1772,public
ELEC,Peavey Mart,7802 44th St,Lloydminster,AB,T9V 3B1,1,Public,,53.278471,-110.059243,1/3/18,83936,J1772,public
ELEC,Peavey Mart,33 Southgate Blvd S,Lethbridge,AB,T1K 2R6,1,Public,,49.661248,-112.792671,1/3/18,83937,J1772,public
ELEC,Peavey Mart,5301 Discovery Way,Leduc,AB,T9E 8N4,1,Public,,53.265794,-113.568558,1/3/18,83938,J1772,public
ELEC,Peavey Mart,5230 45th St,Lacombe,AB,T4L 2A1,1,Public,,52.467092,-113.724817,1/3/18,83939,J1772,public
ELEC,Peavey Mart,9902 120th St,Grand Prairie,AB,T8W 0C7,1,Public,,55.169699,-118.859863,1/3/18,83940,J1772,public
ELEC,Peavey Mart,4815 66 St,Camrose,AB,T4V 4M7,1,Public,,53.019296,-112.854188,1/3/18,83941,J1772,public
ELEC,Northstar Ford,540 Memorial Dr,Fort McMurray,AB,T9K 4V9,1,Public,,56.76087334,-111.419394,12/11/18,83955,J1772,public
ELEC,Petro-Canada,283188 Range Rd 2993,Rocky View County,AB,T0M 0S0,1,Public,,51.41389,-114.0004024,12/11/18,83959,J1772,public
ELEC,Red Deer College,100 College Blvd,Red Deer,AB,T4N 5H5,1,Public,,52.247192,-113.826849,12/11/18,83966,J1772,public
ELEC,Regional Municipality of Wood Buffalo,140 Airport Rd,Fort McMurray,AB,T9H 4P1,1,Public,,56.657986,-111.338513,5/11/17,83969,J1772,public
ELEC,Rosebud Country Inn,111 2nd Ave E,Rosebud,AB,T0J 2T0,1,Public,,51.30036,-112.953493,12/11/18,83987,J1772,public
ELEC,Best Western Plus Lacombe Inn & Suites,4751 63rd St,Lacombe,AB,T4L 1K7,1,Public,,52.46116865,-113.7528213,12/11/18,84016,J1772,public
ELEC,Comfort Inn & Suites,133 Sierra Springs Dr SE,Airdrie,AB,T4B 3G7,1,Public,,51.26837,-114.0037,12/11/18,84020,J1772,public
ELEC,Fantasyland Hotel,8882 170th St NW,Edmonton,AB,T5T 5X1,1,Public,,53.522673,-113.62285,12/11/18,84033,J1772,public
ELEC,Half Hitch Brewing Co,10 Griffin Industrial Point,Cochrane,AB,T4C 0A2,1,Public,,51.183526,-114.454406,12/11/18,84034,J1772,public
ELEC,Southside Mitsubishi,9605 34th Ave N,Edmonton,AB,T6E 5W8,1,Public - Call ahead,,53.466578,-113.478755,12/11/18,84038,J1772,public
ELEC,St. Albert Business Centre,29 Sir Winston Churchill Ave,St. Albert,AB,T8N 0G3,1,Public,,53.631006,-113.626907,12/11/18,84066,J1772,public
ELEC,The Mosaic Centre for Conscious Community & Commerce,2003 91st St SW,Edmonton,AB,T6X 0W8,1,Private,,53.415833,-113.480075,1/3/18,84079,J1772,private
ELEC,Town of Vulcan,110 1st Ave S,Vulcan,AB,T0L 2B0,1,Public,,50.404603,-113.260226,1/3/18,84090,J1772,public
ELEC,Water Pure and Simple,3219 1st Ave S,Lethbridge,AB,T1J 4H1,1,Public,,49.698626,-112.792994,12/11/18,84094,J1772,public
ELEC,Main Street Hardware,4910 Broadway Ave,Blackfalds,AB,T0M 0J0,1,Public,,52.378708,-113.795671,1/3/18,84096,J1772,public
ELEC,Wetaskiwin - City Hall,4705 50th Ave,Wetaskiwin,AB,T9A 0R8,1,Public,,52.968526,-113.366743,12/11/18,84120,J1772,public
ELEC,Best Western Plus Edmonton Airport Hotel,5705 50th St,Leduc,AB,T9E 6Z8,1,Public,,53.271397,-113.550828,1/3/18,84267,J1772,public
ELEC,Cardinal Automotive,4908 St SE,Calgary,AB,T2B 3H2,1,Public - Call ahead,,51.0103846,-113.991252,1/3/18,84304,J1772,public
ELEC,IKEA,8000 11th St SE,Calgary,AB,T2H 3B2,1,Public,,50.979931,-114.044534,12/11/18,84307,J1772,public
ELEC,Town Of Canmore - Arts Place,950 8th Ave,Canmore,AB,T1W 2T1,1,Public,,51.089859,-115.362645,5/11/17,84314,J1772,public
ELEC,Petro-Canada,5012 50th Ave,Athabasca,AB,T9S 1H3,1,Public,,54.721039,-113.286875,12/11/18,84334,J1772,public
ELEC,Universal Ford,2800 Barlow Trail NE,Calgary,AB,T1Y 1A2,1,Public - Call ahead,,51.077996,-114.000716,12/11/18,84336,J1772,public
ELEC,Universal Ford,2800 Barlow Trail NE,Calgary,AB,T1Y 1A2,1,Public - Call ahead,,51.077996,-114.000716,12/11/18,84337,J1772,public
ELEC,Northgate Chevrolet Buick GMC,13215 97th St NW,Edmonton,AB,T5E 4C7,1,Private,,53.593999,-113.491346,12/11/18,84338,J1772,private
ELEC,Coast Plaza Hotel & Conference Centre,1316 33rd St NE,Calgary,AB,T2A 6B6,1,Public,,51.064012,-113.985726,12/11/18,84523,J1772,public
ELEC,Hotel Blackfoot,5940 Blackfoot Trail SE,Calgary,AB,T2H 2B5,1,Public,,51.000349,-114.047922,12/11/18,84668,J1772,public
ELEC,Impark,222 3rd Ave SW,Calgary,AB,T2P 0B4,1,Private,,51.050575,-114.066221,12/11/18,84670,J1772,private
ELEC,McClellan Wheaton Chevrolet Buick GMC,3850 48th Ave,Camrose,AB,T4V 3Z8,1,Public,,53.018599,-112.805448,12/11/18,84771,J1772,public
ELEC,Best Western Bonnyville Inn & Suites,5401 43rd St,Bonnyville,AB,T9N 0H3,1,Public,,54.271152,-110.722178,12/11/18,84774,J1772,public
ELEC,Wyndham Garden,11 Freeport Cres,Calgary,AB,T3J 0T4,1,Public,,51.14018,-114.026079,12/11/18,84775,J1772,public
ELEC,Courtyard by Marriott,3750 Market St SE,Calgary,AB,T3M 1M4,1,Public,,50.879725,-113.955742,12/11/18,84777,J1772,public
ELEC,City of Calgary - Civic Plaza Parkade,322 9th Ave SE,Calgary,AB,T2P 1L5,1,Public,,51.044703,-114.05681,12/11/18,84778,J1772,public
ELEC,Hyatt Mitsubishi,170 Glendeer Cir SE,Calgary,AB,T2H 2S8,1,Public,,50.988267,-114.032204,12/11/18,84779,J1772,public
ELEC,The Fairmont - Banff Springs,405 Spray Ave,Banff,AB,T1L 1J4,1,Public,,51.163852,-115.562642,12/11/18,84780,J1772,public
ELEC,Best Western Plus Okotoks Inn & Suites,100 Southbank Rd,Aldersyde,AB,T0L 0A0,1,Public,,50.70807649,-113.9474378,10/11/18,85022,J1772,public
ELEC,Canmore Rocky Mountain Inn - Tesla,1719 Bow Valley Trail,Canmore,AB,T1W 1L7,1,Public,Tesla,51.100284,-115.359756,1/3/18,85030,TESLA,public
ELEC,BJ Teriyaki House and Waffles - Tesla,2323 7th Ave,Fort MacLeod,AB,T0L 0Z0,1,Public,Tesla,49.72387,-113.394762,9/6/17,85034,TESLA,public
ELEC,Sheraton - Tesla,3310 50th Ave,Red Deer,AB,T4N 3X9,1,Public,Tesla,52.252438,-113.814394,1/3/18,85366,TESLA,public
ELEC,Crosslron Mills - Tesla,261055 Crossiron Blvd,Rocky View,AB,T4A 0G3,1,Public,Tesla,51.204042,-113.989658,1/3/18,85367,TESLA,public
ELEC,Edmonton City Centre,10025 102A Ave NW,Edmonton,AB,T5J 2Z2,1,Public,,53.5432818,-113.498579,12/5/17,88666,J1772,public
ELEC,Devon Tower,400 3rd Ave SW,Calgary,AB,T2P 4H2,1,Private,,51.051046,-114.07089,12/5/17,88667,J1772,private
ELEC,EXTERIOR,2620 A Barlow Trail NE,Calgary,AB,T1Y 1A1,1,Public,ChargePoint Network,51.0762339,-114.000252,3/8/19,91202,J1772,public
ELEC,BORNES,3399 Boulevard Monseigneur-Langlois,Salaberry-de-Valleyfield,AB,J6S 4Y2,1,Public,ChargePoint Network,45.2727046,-74.0970958,3/8/19,91233,J1772,public
ELEC,CALGARY BMW,34 Heritage Meadows Rd,Calgary,AB,T2H 3C1,1,Public,ChargePoint Network,50.9852079,-114.0329119,3/8/19,91287,J1772COMBO,public
ELEC,MOUNTAIN EQUIP,11904 104 Ave NW,Edmonton,AB,T5K 06G,1,Public,ChargePoint Network,53.5463639,-113.5264809,3/8/19,91312,J1772,public
ELEC,MEC QUEBEC,1475 Boulevard Lebourgneuf,Ville de Québec,AB,G2K 2G3,1,Public,ChargePoint Network,46.83415,-71.2989555,3/8/19,91343,J1772,public
ELEC,EV DUAL CHARING,707 5 St SW,Calgary,AB,T2P 0Y3,1,Public,ChargePoint Network,51.046584,-114.074016,3/8/19,91356,J1772,public
ELEC,MOUNTAIN EQUIP,1624 99 St NW,Edmonton,AB,T6N 1N5,1,Public,ChargePoint Network,53.4462437,-113.4869469,3/8/19,91365,J1772,public
ELEC,STADIUM CARPARK,116 Street 89 Ave NW,Edmonton,AB,T6G 2W3,1,Public,ChargePoint Network,53.5256003,-113.5292417,3/8/19,91393,J1772,public
ELEC,BROOKFIELD PL,225 6th Ave SW,Calgary,AB,T2P 1N2,1,Public,ChargePoint Network,51.047246,-114.066726,3/8/19,91410,J1772,public
ELEC,EDMONTON BMW,7450 Roper Rd NW,Edmonton,AB,T6B 3L9,1,Public,ChargePoint Network,53.4936501,-113.4410292,3/8/19,91417,J1772,public
ELEC,BAVARIA BMW,18925 Stony Plain Rd NW,Edmonton,AB,T5S 2Y4,1,Public,ChargePoint Network,53.540828,-113.650823,3/8/19,91422,J1772,public
ELEC,PANPOM,2020 Rte Transcanadienne,Dorval,AB,H9P 2N4,1,Public,ChargePoint Network,45.4825298,-73.7847403,3/8/19,91498,J1772,public
ELEC,SOUTHGATE1,4813-4835 111 St NW,Edmonton,AB,T6H,1,Public,ChargePoint Network,53.4851056,-113.5149923,3/8/19,91503,J1772,public
ELEC,CST CANADA CO,2805-2809 Rue Étienne-Lenoir,Laval,AB,H7R,1,Public,ChargePoint Network,45.5612026,-73.817223,3/8/19,91527,J1772,public
ELEC,CENTENNIAL,520 3 Ave SW,Calgary,AB,T2P OR3,1,Public,ChargePoint Network,51.0511472,-114.07303,3/8/19,91646,J1772,public
ELEC,BOW VALLEY,205 5 Ave SW,Calgary,AB,T2P 2V7,1,Public,ChargePoint Network,51.0483684,-114.0655527,3/8/19,91655,J1772,public
ELEC,STAION1,6444 67 St,Red Deer,AB,T4P 1A1,1,Public,ChargePoint Network,52.289558,-113.840237,3/8/19,92528,J1772,public
ELEC,WEST SIDE MITS,17920 100 Ave NW,Edmonton,AB,T5S 2T6,1,Public,ChargePoint Network,53.538358,-113.632579,3/8/19,92531,J1772,public
ELEC,DRIVE THRU,11527 29 St SE,Calgary,AB,T2Z 0N4,1,Public,ChargePoint Network,50.9495336,-113.9976947,3/8/19,92564,J1772COMBO,public
ELEC,STATION 1,150-190 Glendeer Cir SE,Calgary,AB,T2H 2V4,1,Public,ChargePoint Network,50.9887052,-114.0324321,3/8/19,93836,J1772,public
ELEC,RED ROCK,9605 34 Ave NW,Edmonton,AB,T6E 5W8,1,Public,ChargePoint Network,53.4666074,-113.4785991,3/8/19,93837,J1772,public
ELEC,NORTH SIDE MITS,9670 125a Ave NW,Edmonton,AB,T5G 3E5,1,Public,ChargePoint Network,53.582623,-113.490977,3/8/19,96849,J1772,public
ELEC,Don Wheaton Chevrolet,10727 - 82 Ave,Edmonton,AB,T6E 2B1,1,Private,,53.517704,-113.507252,6/11/18,97058,J1772,private
ELEC,Platinum Mitsubishi,2720 Barlow Trail NE,Calgary,AB,T1Y 1A1,1,Private,,51.07626274,-114.0002598,6/11/18,97083,J1772,private
ELEC,SOUTHLAND 1,1450 Strachan Rd SE,Medicine Hat,AB,T1B 4V2,1,Public,ChargePoint Network,50.002679,-110.663274,3/8/19,99916,J1772,public
ELEC,SOUTHLAND 1,1450 Strachan Road Southeast 1450 Strachan Road Southeast,Medicine Hat,AB,T1B,1,Public,ChargePoint Network,50.0036285,-110.663347,3/8/19,99918,J1772,public
ELEC,NORDENVW,14703 137 Ave NW,Edmonton,AB,T5L 2L5,1,Public,ChargePoint Network,53.598634,-113.576207,3/8/19,100021,J1772,public
ELEC,LETHBRIDGE MITS,3401 4 Ave S,Lethbridge,AB,T1J 4B5,1,Public,ChargePoint Network,49.695569,-112.7894356,3/8/19,100309,J1772,public
ELEC,FLO - Canadian Tire - Calgary,9940 Macleod Trail SE,Calgary,AB,T2J 3K9,1,Public,AddÉnergie Technologies,50.964145,-114.068608,8/30/18,100576,CHADEMO,public
ELEC,Simons - Londonderry,100A 1-Londonderry Mall NW,Edmonton,AB,T5C 3C8,1,Public,AddÉnergie Technologies,53.604111,-113.445444,8/30/18,100577,CHADEMO,public
ELEC,Premium Outlet Collection EIA,1 Outlet Collection Way Unit 1,Edmonton International Airport,AB,T9E 1J5,1,Public,AddÉnergie Technologies,53.303274,-113.555407,8/30/18,100578,J1772,public
ELEC,FLO - Canadian Tire - Red Deer,5908 Gaetz Ave,Red Deer,AB,G9N 0A3,1,Public,AddÉnergie Technologies,52.278975,-113.814606,8/30/18,100579,CHADEMO,public
ELEC,ATCO Electric Stettler,4105 50th ave,Stettler,AB,T0C 2L2,1,Public,AddÉnergie Technologies,52.325596,-112.688861,8/30/18,100580,J1772,public
ELEC,IKEA,1307 102 St NW,Edmonton,AB,T6N 1M3,1,Public,ChargePoint Network,53.441909,-113.490832,3/8/19,103143,J1772,public
ELEC,IKEA,8000 11 St SE,Calgary,AB,T2H,1,Public,ChargePoint Network,50.979931,-114.044534,3/8/19,103509,J1772,public
ELEC,FLO – Canadian Tire – Sherwood Park,169 Ordze Ave,Sherwood Park,AB,T8B 1M6,1,Public,AddÉnergie Technologies,53.511041,-113.323822,11/12/18,104427,CHADEMO,public
ELEC,JLR CALGARY,170 Glendeer Cir SE,Calgary,AB,T2H 2V4,1,Public,ChargePoint Network,50.988267,-114.032204,3/8/19,105214,J1772COMBO,public
ELEC,YELLOWKNIFE,4909 53 St,Yellowknife,AB,X1A 1V3,1,Public,ChargePoint Network,62.4533415,-114.3767289,3/8/19,105284,J1772,public
ELEC,Comfort Inn & Suites - Tesla Destination,133 Sierra Springs Dr SE,Airdrie,AB,T4B 3G7,1,Public,Tesla Destination,51.26837,-114.0037,1/14/19,116255,TESLA,public
ELEC,Hampton Inn & Suites - Tesla Destination,53 E Lake Ave NE,Airdrie,AB,T4A 2G8,1,Public,Tesla Destination,51.295324,-113.996709,1/14/19,116256,TESLA,public
ELEC,Holiday Inn Express & Suites - Airdrie-Calgary North - Tesla Destination,64 E Lake Ave NE,Airdrie,AB,T4A 2G8,1,Public,Tesla Destination,51.295586,-113.998053,1/14/19,116257,TESLA,public
ELEC,Days Inn & Suites - Airdrie - Tesla Destination,911 Highland Park Cove NE,Airdrie,AB,T4A 0R2,1,Public - Call ahead,Tesla Destination,51.300971,-113.997595,1/14/19,116258,TESLA,public
ELEC,Best Western Plus - Okotoks Inn & Suites - Tesla Destination,100 Southbank Rd,Aldersyde,AB,T0L 0A0,1,Public,Tesla Destination,50.708029,-113.947349,1/14/19,116259,TESLA,public
ELEC,Banff Sunshine Village - Tesla Destination,1 Sunshine Rd,Banff,AB,T1L 1B2,1,Public,Tesla Destination,51.115186,-115.763276,1/14/19,116260,TESLA,public
ELEC,Moose Hotel & Suites - Tesla Destination,229 Bear St,Banff,AB,T1L 1H8,1,Public - Call ahead,Tesla Destination,51.178322,-115.572613,1/14/19,116261,TESLA,public
ELEC,The Rimrock Resort Hotel - Tesla Destination,300 Mountain Ave,Banff,AB,T1L 1J2,1,Public - Call ahead,Tesla Destination,51.151648,-115.559526,1/14/19,116262,TESLA,public
ELEC,The Fairmont Banff Springs - Tesla Destination,405 Spray Ave,Banff,AB,T1L1J4,1,Public,Tesla Destination,51.163681,-115.562745,1/14/19,116263,TESLA,public
ELEC,Wyndham Garden - Calgary Airport - Tesla Destination,11 Freeport Cres NE,Calgary,AB,T3J 0T4,1,Public,Tesla Destination,51.14054,-114.026101,1/14/19,116264,TESLA,public
ELEC,Calgary Marriott Downtown - Tesla Destination,110 9th Ave SE,Calgary,AB,T2G 5A6,1,Public,Tesla Destination,51.044772,-114.061926,1/14/19,116265,TESLA,public
ELEC,Impark Keynote Parking Garage - Tesla Destination,1100 1st St SE,Calgary,AB,T2G 1B1,1,Public,Tesla Destination,51.041984,-114.060559,1/14/19,116266,TESLA,public
ELEC,Acclaim Hotel Calgary Airport - Tesla Destination,123 Freeport Blvd NE,Calgary,AB,T3N 0A3,1,Public - Call ahead,Tesla Destination,51.150104,-114.000241,1/14/19,116267,TESLA,public
ELEC,Coast Plaza Hotel & Conference Centre - Tesla Destination,1316 33rd St NE,Calgary,AB,T2A 6J4,1,Public,Tesla Destination,51.064012,-113.985726,1/14/19,116268,TESLA,public
ELEC,Carl's Jr 32nd Ave - Tesla Destination,2791 32nd Ave NE,Calgary,AB,T1Y 2G1,1,Public,Tesla Destination,51.080964,-113.995152,1/14/19,116269,TESLA,public
ELEC,OMO Teppan & Kitchen - Tesla Destination,5222 Macleod Trail S,Calgary,AB,T2H 0J2,1,Public - Call ahead,Tesla Destination,51.007793,-114.067885,1/14/19,116270,TESLA,public
ELEC,East Village Properties Inc Parkade - Tesla Destination,620 6th Ave SE,Calgary,AB,T2H 0J2,1,Public,Tesla Destination,51.047307,-114.049467,1/14/19,116271,TESLA,public
ELEC,Hyatt Regency Calgary - Tesla Destination,700 Centre St SE,Calgary,AB,T2G 5P6,1,Public - Call ahead,Tesla Destination,51.046489,-114.062861,1/14/19,116272,TESLA,public
ELEC,Le Germain Hotel Calgary - Tesla Destination,899 Centre St SW,Calgary,AB,T2P 0S9,1,Public,Tesla Destination,51.044618,-114.063262,1/14/19,116273,TESLA,public
ELEC,Half Hitch Brewing Co - Tesla Destination,10 Griffin Industrial Point,Cochrane,AB,T4C 0A2,1,Public,Tesla Destination,51.183526,-114.454406,1/14/19,116274,TESLA,public
ELEC,Four Points by Sheraton - Edmonton Gateway - Tesla Destination,10010 12th Ave SW,Edmonton,AB,T6X 0P9,1,Public,Tesla Destination,53.42305,-113.48741,1/14/19,116275,TESLA,public
ELEC,Fairmont Hotel - Macdonald - Tesla Destination,10065 100th St,Edmonton,AB,T5J 0N6,1,Public,Tesla Destination,53.5401,-113.489331,1/14/19,116276,TESLA,public
ELEC,Coast Edmonton Plaza Hotel - Tesla Destination,10155 105 St NW,Edmonton,AB,T5J 1C9,1,Public,Tesla Destination,53.542205,-113.500575,1/14/19,116277,TESLA,public
ELEC,Sunwapta Shopping Centre - Tesla Destination,10175 186 St,Edmonton,AB,T5M 2Y8,1,Public,Tesla Destination,53.541936,-113.646203,1/14/19,116278,TESLA,public
ELEC,Vaticano Cucina - Tesla Destination,10310 45th Ave NW,Edmonton,AB,T6H 5K3,1,Public,Tesla Destination,53.483286,-113.49272,1/14/19,116279,TESLA,public
ELEC,Nordstrom Rack - Tesla Destination,14505 114 Ave NW,Edmonton,AB,T5M 2Y8,1,Public,Tesla Destination,53.562353,-113.57185,1/14/19,116280,TESLA,public
ELEC,Sawridge Inn and Conference Centre Edmonton - Tesla Destination,4235 Gateway Blvd N,Edmonton,AB,T6J 5H2,1,Public,Tesla Destination,53.478918,-113.491183,1/14/19,116281,TESLA,public
ELEC,Fantasyland Hotel - Tesla Destination,8882 170 St NW,Edmonton,AB,T5T 5X1,1,Public,Tesla Destination,53.522673,-113.62285,1/14/19,116282,TESLA,public
ELEC,Guest House Inn & Suites - Tesla Destination,4411 4 Ave,Edson,AB,T7E 1B8,1,Public,Tesla Destination,53.586826,-116.419124,1/14/19,116283,TESLA,public
ELEC,Best Western - Resort High Level - Tesla Destination,9616 Highway 58,High Level,AB,T0H 1Z0,1,Public,Tesla Destination,58.519048,-117.119936,1/14/19,116284,TESLA,public
ELEC,The Fairmont Jasper Park Lodge - Tesla Destination,1 Old Lodge Rd,Jasper,AB,T0E-1E0,1,Public - Call ahead,Tesla Destination,52.885988,-118.056984,1/14/19,116285,TESLA,public
ELEC,Sawridge Inn and Conference Centre Jasper - Tesla Destination,76 Connaught Dr,Jasper,AB,T0E 1E0,1,Public,Tesla Destination,52.890725,-118.076466,1/14/19,116286,TESLA,public
ELEC,Best Western Plus - Lacombe Inn & Suites - Tesla Destination,4751 63rd St,Lacombe,AB,T4L 1K7,1,Public,Tesla Destination,52.4612011,-113.7541265,1/14/19,116287,TESLA,public
ELEC,The Lake Louise Ski Resort - Tesla Destination,1 Whitehorn Rd,Lake Louise,AB,T0L1E0,1,Public - Call ahead,Tesla Destination,51.441617,-116.162082,1/14/19,116288,TESLA,public
ELEC,The Fairmont Chateau Lake Louise - Tesla Destination,111 Lake Louise Dr,Lake Louise,AB,T0L 1E0,1,Public,Tesla Destination,51.41771,-116.216893,1/14/19,116289,TESLA,public
ELEC,Holiday Inn Express & Suites - Lethbridge - Tesla Destination,120 Stafford Dr,Lethbridge,AB,T1J 4W4,1,Public,Tesla Destination,49.697573,-112.834345,1/14/19,116290,TESLA,public
ELEC,Okotoks Municipal Centre - Tesla Destination,5 Elizabeth St,Okotoks,AB,T1S 2K1,1,Public,Tesla Destination,50.725129,-113.975283,1/14/19,116291,TESLA,public
ELEC,Red Deer Lodge Hotel and Conference Centre - Tesla Destination,4311 49th Ave,Red Deer,AB,T4N 5Y7,1,Public,Tesla Destination,52.262746,-113.810246,1/14/19,116292,TESLA,public
ELEC,RCH,13815 Manning Dr NW,Edmonton,AB,T5Y 3B2,1,Public,ChargePoint Network,53.59996,-113.416852,3/8/19,116946,J1772,public
ELEC,WESTMAN VILLAGE,Mahogany Gardens SE,Calgary,AB,T3M 0X6,1,Public,ChargePoint Network,50.8967366,-113.9354495,3/8/19,118985,J1772,public
ELEC,WESTMAN VILLAGE,2220 Mahogany Blvd,Calgary,AB,T3M 0T2,1,Public,ChargePoint Network,50.8971287,-113.935614,3/8/19,118986,J1772,public
ELEC,Stanley Ford,8825 Mallard St,Juneau,AK,99801,1,Public - Call ahead,,58.36135,-134.577297,6/5/18,64702,J1772,public
ELEC,Alaska Electric Light & Power,5601 Tonsgard Ct,Juneau,AK,99801,1,Public,,58.353653,-134.495592,12/11/18,72524,J1772,public
ELEC,Marine Parking Garage,292 Marine Way,Juneau,AK,99801,1,Public,,58.298366,-134.404006,12/11/18,81601,J1772,public
ELEC,Chatham Electric,2457 Brady Ln,Juneau,AK,99801,1,Public,,58.367717,-134.60309,12/11/18,82228,J1772,public
ELEC,Juneau Hydropower,8585 Old Dairy Hwy,Juneau,AK,99801,1,Public,,58.363473,-134.575083,12/11/18,85589,J1772,public
ELEC,CHUGACH,5601 Electron Dr,Anchorage,AK,99518,1,Public,ChargePoint Network,61.1693691,-149.9111444,3/8/19,88609,J1772,public
ELEC,Whistle Hill - Tesla Destination,43540 Kleeb Loop,Soldotna,AK,99669,1,Public - Call ahead,Tesla Destination,60.494658,-151.045242,1/10/19,112694,TESLA,public
ELEC,Cordova Center - Upper,604 1st St,Cordova,AK,99574,1,Public,,60.547224,-145.758719,2/6/19,117431,J1772,public
ELEC,Cordova Center - Lower,502 Railroad Ave,Cordova,AK,99574,1,Public,,60.545612,-145.760827,2/6/19,117432,J1772,public
ELEC,KTOO Public Media,360 Egan Dr,Juneau,AK,99801,1,Public,,58.299387,-134.414943,2/6/19,117436,J1772,public
ELEC,Douglas Library,1016 3rd St,Juneau,AK,99801,1,Public,,58.277018,-134.395039,2/6/19,117437,J1772,public
ELEC,Eaglecrest Ski Area,Fish Creek Rd,Juneau,AK,99801,1,Public,,58.2675,-134.5139999,2/6/19,117438,J1772,public
ELEC,Valley Library,3025 Dimond Park Loop,Juneau,AK,99801,1,Public,,58.3778039,-134.5892083,2/6/19,117439,J1772,public
ELEC,Downtown Transit Center,100 Main St,Juneau,AK,99801,1,Public,,58.300164,-134.40846,2/6/19,117440,CHADEMO,public
ELEC,Statter Harbor,11497 Auke Bay Harbor Rd,Juneau,AK,99801,1,Public,,58.385204,-134.644402,2/6/19,117441,J1772,public
ELEC,Treadwell Ice Arena,105 Savikko Rd,Juneau,AK,99801,1,Public,,58.273487,-134.387945,2/6/19,117442,J1772,public
ELEC,Benton Nissan - Hoover,1640 Montgomery Hwy,Birmingham,AL,35216,1,Public - Call ahead,,33.394903,-86.807186,6/5/18,39849,CHADEMO,public
ELEC,Matt Bowers Nissan Eastern Shore,29788 Fredrick Blvd,Daphne,AL,36526,1,Public - Call ahead,,30.660697,-87.858464,6/5/18,39850,J1772,public
ELEC,Lynn Layton Cad-Nissan,2402 Highway 31 S,Decatur,AL,35601,1,Public - Call ahead,,34.563857,-86.972193,6/5/18,39851,CHADEMO,public
ELEC,Jack Ingram Motors,227 Eastern Bypass,Montgomery,AL,36117,1,Public - Call ahead,,32.37702313,-86.20853538,3/7/19,39852,CHADEMO,public
ELEC,Nissan of Albertville,9736 US Highway 431,Albertville,AL,35950,1,Public - Call ahead,,34.290864,-86.244855,6/5/18,46667,J1772,public
ELEC,Nissan of Albertville,9736 US Highway 431,Albertville,AL,35950,1,Private,,34.290864,-86.244855,6/5/18,46668,J1772,private
ELEC,Massey Automotive,600 W Bypass,Andalusia,AL,36420,1,Public - Call ahead,,31.318556,-86.45545,6/5/18,46669,J1772,public
ELEC,Massey Automotive,600 W Bypass,Andalusia,AL,36420,1,Private,,31.318556,-86.45545,6/5/18,46670,J1772,private
ELEC,Lynch Nissan - Auburn,140 W Creek Pkwy,Auburn,AL,36830,1,Public - Call ahead,,32.559745,-85.50088,6/5/18,46671,J1772,public
ELEC,Lynch Nissan - Auburn,140 W Creek Pkwy,Auburn,AL,36830,1,Private,,32.559745,-85.50088,6/5/18,46672,J1772,private
ELEC,Benton Nissan - Bessemer,5487 Academy Way,Bessemer,AL,35022,1,Public - Call ahead,,33.363169,-87.007652,6/5/18,46673,J1772,public
ELEC,Benton Nissan - Bessemer,5487 Academy Way,Bessemer,AL,35022,1,Private,,33.363169,-87.007652,6/5/18,46674,J1772,private
ELEC,Jim Burke Nissan,1300 3rd Ave N,Birmingham,AL,35203,1,Public - Call ahead,,33.512147,-86.816519,6/5/18,46675,J1772,public
ELEC,Jim Burke Nissan,1300 3rd Ave N,Birmingham,AL,35203,1,Private,,33.512147,-86.816519,6/5/18,46676,J1772,private
ELEC,Serra Nissan,1500 Center Pt Pkwy,Birmingham,AL,35215,1,Public - Call ahead,,33.624698,-86.686454,6/5/18,46677,J1772,public
ELEC,Serra Nissan,1500 Center Pt Pkwy,Birmingham,AL,35215,1,Private,,33.624698,-86.686454,6/5/18,46678,J1772,private
ELEC,McKinnon Nissan,135 Price Dr,Clanton,AL,35046,1,Public - Call ahead,,32.888783,-86.622664,6/5/18,46679,J1772,public
ELEC,McKinnon Nissan,135 Price Dr,Clanton,AL,35046,1,Private,,32.888783,-86.622664,6/5/18,46680,J1772,private
ELEC,Bondy's Nissan,3693 W Main St,Dothan,AL,36305,1,Public - Call ahead,,31.231097,-85.447945,6/5/18,46681,J1772,public
ELEC,Bondy's Nissan,3693 W Main St,Dothan,AL,36305,1,Private,,31.231097,-85.447945,6/5/18,46682,J1772,private
ELEC,Mitchell Nissan,1640 E Park Ave,Enterprise,AL,36330,1,Public - Call ahead,,31.30476,-85.819992,6/5/18,46683,J1772,public
ELEC,Mitchell Nissan,1640 E Park Ave,Enterprise,AL,36330,1,Private,,31.30476,-85.819992,6/5/18,46684,J1772,private
ELEC,University Nissan of Florence,248 Cox Creek Pkwy,Florence,AL,35630,1,Public - Call ahead,,34.83473,-87.628871,6/5/18,46685,CHADEMO,public
ELEC,University Nissan of Florence,248 Cox Creek Pkwy,Florence,AL,35630,1,Private,,34.83473,-87.628871,6/5/18,46686,J1772,private
ELEC,Benson's Appliance Center,501 N McKenzie St,Foley,AL,36535,1,Public,,30.41093,-87.6838656,1/10/19,46687,J1772,public
ELEC,Nissan of Gadsden,1701 Rainbow Dr,Gadsden,AL,35901,1,Public - Call ahead,,33.981374,-86.007245,6/5/18,46688,J1772,public
ELEC,Nissan of Gadsden,1701 Rainbow Dr,Gadsden,AL,35901,1,Private,,33.981374,-86.007245,6/5/18,46689,J1772,private
ELEC,Landers McLarty Nissan,6520 University Dr NW,Huntsville,AL,35806,1,Public - Call ahead,,34.748967,-86.690944,6/5/18,46690,J1772,public
ELEC,Landers McLarty Nissan,6520 University Dr NW,Huntsville,AL,35806,1,Private,,34.748967,-86.690944,6/5/18,46691,J1772,private
ELEC,Nissan of Mobile,1015 S Beltline Hwy,Mobile,AL,36606,1,Public - Call ahead,,30.669173,-88.12657,6/5/18,46692,J1772,public
ELEC,Nissan of Mobile,1015 S Beltline Hwy,Mobile,AL,36606,1,Private,,30.669173,-88.12657,6/5/18,46693,J1772,private
ELEC,Benton Nissan,1834 US Highway 78 E,Oxford,AL,36203,1,Public - Call ahead,,33.594279,-85.876568,6/5/18,46694,J1772,public
ELEC,Benton Nissan,1834 US Highway 78 E,Oxford,AL,36203,1,Private,,33.594279,-85.876568,6/5/18,46695,J1772,private
ELEC,Troy Nissan,110 US Highway 231 N,Troy,AL,36081,1,Public - Call ahead,,31.853981,-85.997064,6/5/18,46698,J1772,public
ELEC,Troy Nissan,110 US Highway 231 N,Troy,AL,36081,1,Private,,31.853981,-85.997064,6/5/18,46699,J1772,private
ELEC,Benton Nissan - Hoover,1640 Montgomery Hwy,Birmingham,AL,35216,1,Private,,33.394903,-86.807186,6/5/18,48327,J1772,private
ELEC,Matt Bowers Nissan Eastern Shore,29788 Fredrick Blvd,Daphne,AL,36526,1,Private,,30.660697,-87.858464,6/5/18,48328,J1772,private
ELEC,Lynn Layton Cad-Nissan,2402 Highway 31 S,Decatur,AL,35601,1,Private,,34.563857,-86.972193,6/5/18,48329,J1772,private
ELEC,Jack Ingram Motors,227 Eastern Bypass,Montgomery,AL,36117,1,Private,,32.37702313,-86.20853538,3/7/19,48331,J1772,private
ELEC,Townsend Nissan,2620 Skyland Blvd E,Tuscaloosa,AL,35405,1,Public - Call ahead,,33.169903,-87.503003,6/5/18,49968,J1772,public
ELEC,Townsend Nissan,2620 Skyland Blvd E,Tuscaloosa,AL,35405,1,Private,,33.169903,-87.503003,6/5/18,49969,J1772,private
ELEC,MCWANE SCIENCE,200 19th St N,Birmingham,AL,35203,1,Public,ChargePoint Network,33.5144998,-86.809204,3/8/19,50422,J1772,public
ELEC,Alabama Power - Corporate Headquarters,600 N 18th St,Birmingham,AL,35203,1,Private,,33.518112,-86.812843,7/9/18,60695,CHADEMO,private
ELEC,Alabama Power - Western Division Office,915 Queen City Ave,Tuscaloosa,AL,35401,1,Private,,33.20735,-87.559866,7/9/18,60699,J1772,private
ELEC,Alabama Power - Mobile Division Office,150 Saint Joseph St,Mobile,AL,36602,1,Private,,30.694703,-88.042744,7/9/18,60700,J1772,private
ELEC,Alabama Power - Southeastern Division Office,205 E Barbour St,Eufaula,AL,36027,1,Private,,31.891402,-85.143411,7/9/18,60701,J1772,private
ELEC,Alabama Power - Southern Division Office,244 Dexter Ave,Montgomery,AL,36104,1,Private,,32.376774,-86.305641,7/9/18,60702,J1772,private
ELEC,Alabama Power - Selma,217 Church St,Selma,AL,36701,1,Private,,32.408643,-87.023444,7/9/18,60703,J1772,private
ELEC,Alabama Power - Clanton,2030 7th St S,Clanton,AL,35045,1,Private,,32.803254,-86.587813,7/9/18,60704,J1772,private
ELEC,Alabama Power - Auburn,1699 S College St,Auburn,AL,36832,1,Private,,32.573039,-85.497642,7/9/18,60705,J1772,private
ELEC,Alabama Power - Eastern Division Office,925 Quintard Ave,Anniston,AL,36201,1,Private,,33.656551,-85.826141,7/9/18,60706,J1772,private
ELEC,Alabama Power - Pelham,2 Industrial Park Dr,Pelham,AL,35124,1,Private,,33.296045,-86.814196,7/9/18,60707,J1772,private
ELEC,Serra Nissan of Sylacauga,80 James Payton Blvd,Sylacauga,AL,35150,1,Public - Call ahead,,33.176389,-86.290039,6/5/18,61414,J1772,public
ELEC,Serra Nissan of Sylacauga,80 James Payton Blvd,Sylacauga,AL,35150,1,Private,,33.176389,-86.290039,6/5/18,61415,J1772,private
ELEC,BMW CENTURY,3800 University Dr NW,Huntsville,AL,35816,1,Public,ChargePoint Network,34.7354945,-86.6239556,3/8/19,61846,J1772,public
ELEC,TW BMW,2000 Tom Williams Way,Irondale,AL,35210,1,Public,ChargePoint Network,33.5203475,-86.6636026,3/8/19,62730,J1772,public
ELEC,BMW OF MOBILE 1,2958-2960 Mc Vay Dr N,Mobile,AL,36606,1,Public,ChargePoint Network,30.6553646,-88.1157329,3/8/19,62809,J1772,public
ELEC,U OF A,751 Campus Drive West,Tuscaloosa,AL,35487,1,Public,ChargePoint Network,33.2125558,-87.5523843,3/8/19,62885,J1772,public
ELEC,City of Huntsville,301 Fountain Cir,Huntsville,AL,35801,1,Public,,34.728669,-86.585894,10/4/18,62977,CHADEMO,public
ELEC,Alabama Power - Greenville,400 Greenville Bypass,Greenville,AL,36037,1,Private,,31.846603,-86.626234,7/9/18,68124,J1772,private
ELEC,Alabama Power - Montgomery Garage,1810 Congressman WL Dickinson Dr,Montgomery,AL,36109,1,Private,,32.409057,-86.259364,7/9/18,68125,J1772,private
ELEC,Alabama Power - General Service Complex,744 Highway 87,Calera,AL,35040,1,Private,,33.174411,-86.775792,8/7/18,68126,J1772,private
ELEC,Alabama Power - Gadsden,749 Forrest Ave,Gadsden,AL,35901,1,Private,,34.015812,-86.010703,7/9/18,68127,J1772,private
ELEC,Alabama Power - Pell City,700 S Martin St,Pell City,AL,35901,1,Private,,33.581379,-86.277021,7/9/18,68128,J1772,private
ELEC,Alabama Power - Oak Grove,38001 US Highway 280,Oak Grove,AL,35150,1,Private,,33.211573,-86.312667,7/9/18,68129,J1772,private
ELEC,Alabama Power - Roanoke,325 Main St,Roanoke,AL,36274,1,Private,,33.150755,-85.364044,7/9/18,68130,J1772,private
ELEC,Alabama Power - Jasper,11 E 18th St,Jasper,AL,35501,1,Private,,33.833423,-87.274482,7/9/18,68131,J1772,private
ELEC,Alabama Power - Jasper Garage,2500 Highway 78 W,Jasper,AL,35501,1,Private,,33.853462,-87.310149,7/9/18,68132,J1772,private
ELEC,Alabama Power - Thomasville,32020 Highway 43 S,Thomasville,AL,36784,1,Private,,31.907396,-87.74143,7/9/18,68133,J1772,private
ELEC,Alabama Power - Bay Minette,600 Dolive St,Bay Minette,AL,36507,1,Private,,30.880022,-87.780107,7/9/18,68134,J1772,private
ELEC,Alabama Power - Atmore,306 E Church St,Atmore,AL,36502,1,Private,,31.022621,-87.49041,7/9/18,68135,J1772,private
ELEC,Alabama Power - Haleyville,2001 13th Ave,Haleyville,AL,35565,1,Private,,34.226524,-87.618479,7/9/18,68136,J1772,private
ELEC,Alabama Power - Fayette,1534 Temple Ave N,Fayette,AL,35555,1,Private,,33.705575,-87.825077,7/9/18,68137,J1772,private
ELEC,Alabama Power - Jackson,1120 College Ave,Jackson,AL,36545,1,Private,,31.523377,-87.894832,7/9/18,68138,J1772,private
ELEC,Alabama Power - Hillcrest,6396 Airport Blvd,Mobile,AL,36608,1,Private,,30.678628,-88.189949,7/9/18,68139,J1772,private
ELEC,Alabama Power - Phoenix City,1601 Broad St,Phoenix City,AL,36867,1,Private,,32.474709,-85.000866,7/9/18,68140,J1772,private
ELEC,Alabama Power - Enterprise,549 Glover Ave,Enterprise,AL,36330,1,Private,,31.320907,-85.842939,7/9/18,68141,J1772,private
ELEC,Alabama Power - Birmingham Garage,1225 6th Ave N,Birmingham,AL,35203,1,Private,,33.513962,-86.819069,7/9/18,68142,J1772,private
ELEC,Joseph M. Farley Nuclear Plant,7388 AL-95,Columbia,AL,36319,1,Private,,31.215013,-85.12553,11/8/18,69825,J1772,private
ELEC,CAPITAL PARK,6941 Hwy 72 W,Huntsville,AL,35806,1,Public,ChargePoint Network,34.7515393,-86.7071961,3/8/19,71028,J1772,public
ELEC,The Kate Shepard House Bed and Breakfast,1552 Monterey Pl,Mobile,AL,36604,1,Public - Call ahead,,30.684443,-88.074043,10/4/18,71516,J1772,public
ELEC,Hampton Inn & Suites,25518 Perdido Beach Blvd,Orange Beach,AL,36561,1,Public,,30.268109,-87.589171,10/4/18,72203,J1772,public
ELEC,Hilton Garden Inn,23092 Perdido Beach Blvd,Orange Beach,AL,36561,1,Public,,30.25863,-87.630734,1/10/19,72204,J1772,public
ELEC,Holiday Inn Express,24700 Perdido Beach Blvd,Orange Beach,AL,36561,1,Public,,30.265761,-87.603528,10/4/18,72205,J1772,public
ELEC,The Gulf,27500 Perdido Beach Blvd,Orange Beach,AL,36561,1,Public,,30.27692,-87.556352,10/4/18,72206,J1772,public
ELEC,Jasper Sleep Inn & Suites,90 Carl Cannon Boulevard,Jasper,AL,35501,1,Public - Card key at all times,SemaCharge Network,33.79081381,-87.24101976,3/8/19,73452,J1772,public
ELEC,Jay Landings Marina,1600 Highway 20,Decatur,AL,35601,1,Public,,34.619164,-87.012166,10/4/18,75210,J1772,public
ELEC,EBSCO Media Corporate Office,5724 Highway 280 E,Birmingham,AL,35242,1,Private,,33.38137641,-86.6695752,10/4/18,77033,J1772,private
ELEC,Bridge Street Town Center,301 Bridge St Walking Trail,Huntsville,AL,35806,1,Public,,34.7154217,-86.67403547,10/4/18,78801,J1772,public
ELEC,Holiday Inn Express & Suites,2407 Beltline Rd SW,Decatur,AL,35601,1,Public,,34.591756,-87.030473,10/4/18,79940,J1772,public
ELEC,AT&T,2801 Highway 280 S,Birmingham,AL,35243,1,Private,,33.446594,-86.736914,12/11/18,80220,J1772,private
ELEC,Grand Bohemian Hotel,2655 Lane Park Rd,Birmingham,AL,35223,1,Public,,33.487888,-86.773979,3/7/19,80384,J1772,public
ELEC,Publix #1512,230 20th St S,Birmingham,AL,35233,1,Public,,33.51,-86.80339,4/3/18,81086,J1772,public
ELEC,UAB,1500 University Blvd,Birmingham,AL,35233,1,Public,ChargePoint Network,33.5022222,-86.8063094,3/8/19,81217,J1772,public
ELEC,UAB,933 19th St S,Birmingham,AL,35205,1,Public,ChargePoint Network,33.5020937,-86.798603,3/8/19,81218,J1772,public
ELEC,UAB,316 10th St S,Birmingham,AL,35233,1,Public,ChargePoint Network,33.502715,-86.816256,3/8/19,81317,J1772,public
ELEC,Alabama Power - Tuscaloosa Garage,1301 Snows Mill Ave,Tuscaloosa,AL,35406,1,Private,,33.230496,-87.560184,7/9/18,81602,J1772,private
ELEC,Alabama Power - Mobile Garage,650 Michigan Ave,Mobile,AL,36605,1,Private,,30.670265,-88.069889,7/9/18,81603,J1772,private
ELEC,Alabama Power - Montgomery Crew Headquarters,2740 Gunter Park Dr E,Montgomery,AL,36109,1,Private,,32.40313,-86.229088,7/9/18,81605,J1772,private
ELEC,Alabama Power - Demopolis Garage,1610 Highway 43 S,Demopolis,AL,36732,1,Private,,32.49964,-87.815615,7/9/18,81606,J1772,private
ELEC,Alabama Power - Leeds,1412 9th St,Leeds,AL,35094,1,Private,,33.542386,-86.540855,7/9/18,81607,J1772,private
ELEC,ELEMENT WESTIN,6800 Govenors West NW,Huntsville,AL,35806,1,Public,ChargePoint Network,34.7185854,-86.6728504,3/8/19,81851,J1772,public
ELEC,Damn Yankees Restaurant,2190 Almon St,Heflin,AL,36264,1,Public,,33.619247,-85.596438,10/4/18,82431,J1772,public
ELEC,THE AVE STATION,201 Jefferson st,Huntsville,AL,35801,1,Public,ChargePoint Network,34.7323361,-86.5885696,3/8/19,82760,J1772,public
ELEC,BMW MONTGOMERY,731 Eastern Blvd,Montgomery,AL,36117,1,Public,ChargePoint Network,32.3693381,-86.2087311,3/8/19,85841,J1772,public
ELEC,Tony Serra Nissan,1724 Cherokee Ave SW,Cullman,AL,35055,1,Public - Call ahead,,34.155465,-86.837679,6/5/18,85957,J1772,public
ELEC,Phenix City Parks and Recreation,952 Stadium Dr,Phenix City,AL,36867,1,Public,,32.499111,-85.015305,10/4/18,86204,J1772,public
ELEC,Marshall Space Flight Center,Saturn Rd,Huntsville,AL,35898,1,Private - Government only,,34.640247,-86.669231,1/10/19,86977,J1772,private
ELEC,Alabama Power - Prattville Office,1651 E Main St,Prattville,AL,36066,1,Private,,32.461286,-86.428374,7/9/18,87776,J1772,private
ELEC,Alabama Power - Wetumpka Business Office,400 S Main St,Wetumpka,AL,36092,1,Private,,32.534478,-86.205763,7/9/18,87777,J1772,private
ELEC,U OF A,801 Campus Dr E,Tuscaloosa,AL,35401,1,Public,ChargePoint Network,33.214671,-87.5465726,3/8/19,88034,J1772,public
ELEC,SOCO,3535 Colonnade Parkway,Birmingham,AL,35243,1,Public,ChargePoint Network,33.435879,-86.729211,3/8/19,88651,J1772,public
ELEC,SOCO,3525 Colonnade Pkwy,Birmingham,AL,35243,1,Public,ChargePoint Network,33.435679,-86.728304,3/8/19,88652,J1772,public
ELEC,Whole Foods Market,3780 Riverchase Village,Hoover,AL,35244,1,Public,,33.37731,-86.800938,10/4/18,89926,J1772,public
ELEC,TOWNSEND BMW,3537 Skyland Blvd E,Tuscaloosa,AL,35405,1,Public,ChargePoint Network,33.1690981,-87.4909594,3/8/19,95032,J1772,public
ELEC,Auburn University - Stadium Parking Deck,425 Heisman Drive,Auburn,AL,36849,1,Public,Blink Network,32.569514,-85.347427,3/8/19,96438,J1772,public
ELEC,Redstone Energy Group - Huntsville AL,3615 South Memorial Parkway,Huntsville,AL,35801,1,Public,Blink Network,34.691851,-86.580629,3/8/19,96616,J1772,public
ELEC,WHOLE FOODS MKT,1857-1875 Palm Beach Lakes Blvd,West Palm Beach,AL,33401,1,Public,ChargePoint Network,26.720481,-80.0887403,3/8/19,96846,J1772,public
ELEC,HH,160-170 AL-1,Huntsville,AL,35801,1,Public,ChargePoint Network,34.720279,-86.5802433,3/8/19,98402,J1772,public
ELEC,ROLLINS COLLEGE,131 E Comstock Ave,Winter Park,AL,32789,1,Public,ChargePoint Network,28.5944318,-81.349714,3/8/19,99447,J1772,public
ELEC,Alabama Power - Birmingham Headquarters,1200 6th Ave N,Birmingham,AL,35203,1,Private,,33.514345,-86.819726,8/7/18,99659,J1772,private
ELEC,Alabama Power - Plant Miller Fleet Garage,4250 Porter Rd SW,Quinton,AL,35130,1,Private,,33.632359,-87.053169,8/7/18,99661,J1772,private
ELEC,Fairfield Inn - Tesla Supercharger,21282 Athens-Limestone Blvd,Athens,AL,35613,1,Public,Tesla,34.78587876,-86.94290961,9/10/18,101972,TESLA,public
ELEC,Auburn Mall - Tesla Supercharger,1627 Opelika Rd,Auburn,AL,36830,1,Public,Tesla,32.625413,-85.446168,9/10/18,101973,TESLA,public
ELEC,Uptown Entertainment District - Tesla Supercharger,2221 Richard Arrington Junior Blvd,Birmingham,AL,35203,1,Public,Tesla,33.525826,-86.807072,9/10/18,101974,TESLA,public
ELEC,Hampton Inn - Greenville - Tesla Supercharger,219 Interstate Dr,Greenville,AL,36037,1,Public,Tesla,31.855636,-86.635438,9/10/18,101975,TESLA,public
ELEC,The Bel Air Mall - Tesla Supercharger,3201 Airport Blvd,Mobile,AL,36606,1,Public,Tesla,30.675922,-88.120395,9/10/18,101976,TESLA,public
ELEC,Oxford Exchange - Tesla Supercharger,1105 Oxford Exchange Blvd,Oxford,AL,36203,1,Public,Tesla,33.607745,-85.783986,9/10/18,101977,TESLA,public
ELEC,Love's Travel Stop - Tesla Supercharger,905 Steele Station Rd,Steele,AL,35987,1,Public,Tesla,33.933611,-86.191264,9/10/18,101978,TESLA,public
ELEC,HIGHLAND,150 Du Rhu Dr,Mobile,AL,36608,1,Public,ChargePoint Network,30.693642,-88.127591,3/8/19,102661,J1772,public
ELEC,HIGHLAND,151 Du Rhu Dr,Mobile,AL,36608,1,Public,ChargePoint Network,30.6924539,-88.127227,3/8/19,102662,J1772,public
ELEC,BJCTA,1501 Morris Ave,Birmingham,AL,35203,1,Public,ChargePoint Network,33.51072,-86.8111579,3/8/19,103823,J1772,public
ELEC,WHOLE FOODS MKT,2501 Memorial Pkwy SW,Huntsville,AL,35801,1,Public,ChargePoint Network,34.713444,-86.590469,3/8/19,104671,J1772,public
ELEC,CITY OF TAMPA,200 S Ashley Street,Tampa,AL,33602,1,Public,ChargePoint Network,27.942638,-82.4568219,3/8/19,104775,J1772,public
ELEC,CITY OF TAMPA,301 Channelside Dr,Tampa,AL,33602,1,Public,ChargePoint Network,27.9424996,-82.4541761,3/8/19,104777,J1772,public
ELEC,JLR HUNTSVILLE,3810 University Dr NW,Huntsville,AL,35816,1,Public,ChargePoint Network,34.7359783,-86.625031,3/8/19,105012,J1772,public
ELEC,20 MIDTOWN,230 20th St S,Birmingham,AL,35233,1,Public,ChargePoint Network,33.5102867,-86.8033697,3/8/19,105151,J1772,public
ELEC,UM PTS,680 W Lexington St,Baltimore,AL,21201,1,Public,ChargePoint Network,39.2921769,-76.6266704,3/8/19,105313,J1772,public
ELEC,Tru by Hilton - Auburn - Tesla Destination,2411 W Pace Blvd,Auburn,AL,36830,1,Public,Tesla Destination,32.5547,-85.504436,1/10/19,112695,TESLA,public
ELEC,Grand Bohemian Hotel - Mountain Brook - Tesla Destination,2655 Lane Park Rd,Birmingham,AL,35223,1,Public,Tesla Destination,33.487888,-86.773979,1/10/19,112696,TESLA,public
ELEC,Embassy Suites - Birmingham - Hoover - Tesla Destination,2960 John Hawkins Pkwy,Birmingham,AL,35244,1,Public,Tesla Destination,33.369408,-86.816193,1/10/19,112697,TESLA,public
ELEC,Hampton Inn - Birmingham - Tesla Destination,30 State Farm Pkwy,Birmingham,AL,35209,1,Public,Tesla Destination,33.456373,-86.820187,1/10/19,112698,TESLA,public
ELEC,Home2 Suites - Birmingham Colonnade - Tesla Destination,3920 Colonnade Pkwy,Birmingham,AL,35243,1,Public,Tesla Destination,33.435176,-86.731087,1/10/19,112699,TESLA,public
ELEC,Fairfield Inn & Suites - Birmingham Colonnade - Tesla Destination,3930 Colonnade Pkwy,Birmingham,AL,35243,1,Public,Tesla Destination,33.435177,-86.731241,1/10/19,112700,TESLA,public
ELEC,SpringHill Suites - Birmingham Colonnade - Tesla Destination,3950 Colonnade Pkwy,Birmingham,AL,35243,1,Public,Tesla Destination,33.436946,-86.73463,1/10/19,112701,TESLA,public
ELEC,Hilton - Birmingham Perimeter Park - Tesla Destination,8 Perimeter Park S,Birmingham,AL,35243,1,Public,Tesla Destination,33.437773,-86.725906,1/10/19,112702,TESLA,public
ELEC,Jay Landings Marina - Tesla Destination,1600 Highway 20,Decatur,AL,35601,1,Public,Tesla Destination,34.619364,-87.012161,1/10/19,112703,TESLA,public
ELEC,TownePlace Suites - Dothan - Tesla Destination,201 Retail Dr,Dothan,AL,36303,1,Public,Tesla Destination,31.255528,-85.428565,1/10/19,112704,TESLA,public
ELEC,University of North Alabama - Parking Lot A - Tesla Destination,1 Harrison Plaza,Florence,AL,35632,1,Public,Tesla Destination,34.8114,-87.6648,1/10/19,112705,TESLA,public
ELEC,University of North Alabama - Parking Lot E - Tesla Destination,1 Harrison Plaza,Florence,AL,35632,1,Public,Tesla Destination,34.8114,-87.6648,1/10/19,112706,TESLA,public
ELEC,Benson's Appliance Center - Tesla Destination,501 N McKenzie St,Foley,AL,36535,1,Public,Tesla Destination,30.410928,-87.684128,1/10/19,112707,TESLA,public
ELEC,Fairfield Inn & Suites - Gadsden - Tesla Destination,116 Walker St,Gadsden,AL,35904,1,Public,Tesla Destination,33.998629,-86.088579,1/10/19,112708,TESLA,public
ELEC,LuLu's Gulf Shores - Tesla Destination,200 E 25th Ave,Gulf Shores,AL,36542,1,Public,Tesla Destination,30.280967,-87.684917,1/10/19,112709,TESLA,public
ELEC,Residence Inn - Birmingham Hoover - Tesla Destination,2725 John Hawkins Pkwy,Hoover,AL,35244,1,Public,Tesla Destination,33.36304,-86.828479,1/10/19,112710,TESLA,public
ELEC,Hampton Inn - Huntsville - Village of Providence - Tesla Destination,328 Providence Main St,Huntsville,AL,35806,1,Public,Tesla Destination,34.752916,-86.693007,1/10/19,112711,TESLA,public
ELEC,The Kate Shepard House Bed & Breakfast - Tesla Destination,1552 Monterey Pl,Mobile,AL,36604,1,Public,Tesla Destination,30.684443,-88.074043,1/10/19,112712,TESLA,public
ELEC,Hilton Garden Inn - Mobile West I-65 - Airport Blvd - Tesla Destination,828 W I-65 Service Rd S,Mobile,AL,36609,1,Public,Tesla Destination,30.674569,-88.128721,1/10/19,112713,TESLA,public
ELEC,Hilton Garden Inn - Montgomery - Eastchase - Tesla Destination,7665 Eastchase Pkwy,Montgomery,AL,36117,1,Public,Tesla Destination,32.36104,-86.155839,1/10/19,112714,TESLA,public
ELEC,Sleep Inn - Eastchase - Tesla Destination,10150 Chantilly Pkwy,Montgomery,AL,36117,1,Public,Tesla Destination,32.363338,-86.137863,1/10/19,112715,TESLA,public
ELEC,Best Western - Montgomery I-85 North Hotel - Tesla Destination,5225 Carmichael Rd,Montgomery,AL,36106,1,Public,Tesla Destination,32.361164,-86.216721,1/10/19,112716,TESLA,public
ELEC,Fairfield Inn & Suites - Montgomery - Eastchase Parkway - Tesla Destination,8970 Eastchase Pkwy,Montgomery,AL,36117,1,Public,Tesla Destination,32.362987,-86.139536,1/10/19,112717,TESLA,public
ELEC,Hilton Garden Inn - Orange Beach - Tesla Destination,23092 Perdido Beach Blvd,Orange Beach,AL,36561,1,Public,Tesla Destination,30.258442,-87.630668,1/10/19,112718,TESLA,public
ELEC,Holiday Inn Express - Orange Beach - Tesla Destination,24700 Perdido Beach Blvd,Orange Beach,AL,36561,1,Public,Tesla Destination,30.265566,-87.603485,1/10/19,112719,TESLA,public
ELEC,Hampton Inn & Suites - Orange Beach - Tesla Destination,25518 Perdido Beach Blvd,Orange Beach,AL,36561,1,Public,Tesla Destination,30.268109,-87.589171,1/10/19,112720,TESLA,public
ELEC,The Gulf - Tesla Destination,27500 Perdido Beach Blvd,Orange Beach,AL,36561,1,Public,Tesla Destination,30.27692,-87.556352,1/10/19,112721,TESLA,public
ELEC,Holiday Inn Express & Suites - Prattville South - Tesla Destination,203 Legends Ct,Prattville,AL,36066,1,Public,Tesla Destination,32.455203,-86.400455,1/10/19,112722,TESLA,public
ELEC,Home2 Suites - Prattville - Tesla Destination,2505 Legends Dr,Prattville,AL,36066,1,Public,Tesla Destination,32.452053,-86.403597,1/10/19,112723,TESLA,public
ELEC,Hotel Indigo Tuscaloosa Downtown - Tesla Destination,111 Greensboro Ave,Tuscaloosa,AL,35401,1,Public,Tesla Destination,33.213477,-87.571203,1/10/19,112724,TESLA,public
ELEC,HONDABELAIRMALL,1175 East Interstate 65 Service Rd S,Mobile,AL,36606,1,Public,ChargePoint Network,30.66518,-88.125241,3/8/19,116850,J1772,public
ELEC,PLYMOUTH,26 Court St,Plymouth,AL,2360,1,Public,ChargePoint Network,41.9572023,-70.6667363,3/8/19,116945,J1772,public
ELEC,BROWNS SHOP,9 8th Ave NW,Glen Burnie,AL,21061,1,Public,ChargePoint Network,39.1759057,-76.6195093,3/8/19,117054,J1772,public
ELEC,WINTER PARK,2206 Cady Way,Winter Park,AL,32792,1,Public,ChargePoint Network,28.5946619,-81.3223411,3/8/19,117307,J1772,public
ELEC,NW STATION,4771 US-1,Fort Pierce,AL,34982,1,Public,ChargePoint Network,27.3788141,-80.327033,3/8/19,117476,J1772COMBO,public
ELEC,JLR ANNAPOLIS,101 Ferguson Rd,Annapolis,AL,21409,1,Public,ChargePoint Network,39.0178824,-76.4821734,3/8/19,117525,J1772COMBO,public
ELEC,LOUDOUN COUNTY,39464 E Colonial Hwy,Hamilton,AL,20158,1,Public,ChargePoint Network,39.1361585,-77.6360384,3/8/19,117562,J1772,public
ELEC,SOCO,150 Leaf Lake Pkwy,Birmingham,AL,35211,1,Public,ChargePoint Network,33.405945,-86.914649,3/8/19,117571,J1772,public
ELEC,TAMERON HONDA,9871 Justina Ave,Daphne,AL,36526,1,Public,ChargePoint Network,30.661072,-87.853529,3/8/19,118018,J1772,public
ELEC,UMD SHADY GROVE,5 Traville Gateway Dr,Rockville,AL,20850,1,Public,ChargePoint Network,39.0935215,-77.2023213,3/8/19,118727,J1772,public
ELEC,SARASOTA PARK,57 N Adams Dr,Sarasota,AL,34236,1,Public,ChargePoint Network,27.3199597,-82.5765578,3/8/19,118911,J1772COMBO,public
ELEC,TACOMA PARKS,1721 E 56th St,Tacoma,AL,98404,1,Public,ChargePoint Network,47.2070232,-122.4052532,3/8/19,118997,J1772,public
ELEC,CITY OF DBS,3000 S Atlantic Ave,Daytona Beach Shores,AL,32118,1,Public,ChargePoint Network,29.1689168,-80.9800951,3/8/19,119019,J1772,public
ELEC,2100 ROSS EV,2100 Ross st,Dallas,American Samoa,75201,1,Public,ChargePoint Network,32.7872176,-96.7975361,3/8/19,99922,J1772,public
ELEC,Kum & Go #408,2811 E Central Ave,Bentonville,AR,72712,1,Public,,36.380301,-94.177985,5/3/18,40965,J1772,public
ELEC,McLarty Daniel Nissan,2501 SE Moberly Ln,Bentonville,AR,72712,1,Public - Call ahead,,36.34538,-94.182742,6/5/18,44381,J1772,public
ELEC,McLarty Daniel Nissan,2501 SE Moberly Ln,Bentonville,AR,72712,1,Private,,36.34538,-94.182742,6/5/18,44382,J1772,private
ELEC,Superior Nissan - Conway,1090 Collier Dr,Conway,AR,72032,1,Public - Call ahead,,35.09414,-92.4223,6/5/18,44383,J1772,public
ELEC,Superior Nissan - Conway,1090 Collier Dr,Conway,AR,72032,1,Private,,35.09414,-92.4223,6/5/18,44384,J1772,private
ELEC,Superior Nissan,3372 N College Ave,Fayetteville,AR,72703,1,Public - Call ahead,,36.112766,-94.144287,6/5/18,44385,J1772,public
ELEC,Superior Nissan,3372 N College Ave,Fayetteville,AR,72703,1,Private,,36.112766,-94.144287,6/5/18,44386,J1772,private
ELEC,Orr Nissan of Fort Smith,6520 Auto Park Dr,Fort Smith,AR,72908,1,Public - Call ahead,,35.320472,-94.397408,6/5/18,44387,J1772,public
ELEC,Orr Nissan of Fort Smith,6520 Auto Park Dr,Fort Smith,AR,72908,1,Private,,35.320472,-94.397408,6/5/18,44388,J1772,private
ELEC,Orr Nissan of Hot Springs,4111 Central Ave,Hot Springs,AR,71913,1,Public - Call ahead,,34.453266,-93.066286,6/5/18,44389,J1772,public
ELEC,Orr Nissan of Hot Springs,4111 Central Ave,Hot Springs,AR,71913,1,Private,,34.453266,-93.066286,6/5/18,44390,J1772,private
ELEC,Central Nissan,2907 E Parker Rd,Jonesboro,AR,72404,1,Public - Call ahead,,35.804632,-90.67099,6/5/18,44391,J1772,public
ELEC,Central Nissan,2907 E Parker Rd,Jonesboro,AR,72404,1,Private,,35.804632,-90.67099,6/5/18,44392,J1772,private
ELEC,McLarty Nissan - Little Rock,1 Colonel Glenn Plaza Dr,Little Rock,AR,72210,1,Public - Call ahead,,34.711439,-92.404311,6/5/18,44393,J1772,public
ELEC,McLarty Nissan - Little Rock,1 Colonel Glenn Plaza Dr,Little Rock,AR,72210,1,Private,,34.711439,-92.404311,6/5/18,44394,J1772,private
ELEC,McLarty Nissan - North Little Rock,5703 Landers Rd,North Little Rock,AR,72117,1,Public - Call ahead,,34.810013,-92.205719,6/5/18,44395,J1772,public
ELEC,McLarty Nissan - North Little Rock,5703 Landers Rd,North Little Rock,AR,72117,1,Private,,34.810013,-92.205719,6/5/18,44396,J1772,private
ELEC,Welch Motor Co,2505 S Olive St,Pine Bluff,AR,71601,1,Public - Call ahead,,34.203951,-92.006625,6/5/18,44397,J1772,public
ELEC,Welch Motor Co,2505 S Olive St,Pine Bluff,AR,71601,1,Private,,34.203951,-92.006625,6/5/18,44398,J1772,private
ELEC,CITY-LITTLEROCK,100 main st,Little Rock,AR,72201,1,Public,ChargePoint Network,34.7466892,-92.2703943,3/8/19,48959,J1772,public
ELEC,City of Fayetteville,113 W Mountain St,Fayetteville,AR,72701,1,Public,,36.061611,-94.161003,6/5/18,52331,J1772,public
ELEC,Lewis Ford,3373 N College Ave,Fayetteville,AR,72703,1,Public - Call ahead,,36.112865,-94.146027,1/10/19,53364,J1772,public
ELEC,BMW ARKANSAS,2101 SE Simple Savings Dr,Bentonville,AR,72712,1,Public,ChargePoint Network,36.3458993,-94.1847405,3/8/19,61439,J1772,public
ELEC,Lewis Ford,3373 N College Ave,Fayetteville,AR,72703,1,Private,,36.112865,-94.146027,1/10/19,61480,J1772,private
ELEC,BMW LITTLE ROCK,1706 N Shackleford Rd,Little Rock,AR,72211,1,Public,ChargePoint Network,34.768739,-92.3963326,3/8/19,61518,J1772,public
ELEC,Trotter Nissan,1910 W Hillsboro,El Dorado,AR,71730,1,Public - Call ahead,,33.208096,-92.689847,6/5/18,63391,J1772,public
ELEC,Trotter Nissan,1910 W Hillsboro,El Dorado,AR,71730,1,Private,,33.208096,-92.689847,6/5/18,63392,J1772,private
ELEC,Everett Chevrolet,1159 N 45th St,Springdale,AR,72762,1,Private,,36.193568,-94.17652,6/5/18,64384,J1772,private
ELEC,Cogswell Motors,1900 E Main St,Russellville,AR,72801,1,Public - Call ahead,,35.277594,-93.110985,2/6/19,64387,J1772,public
ELEC,21c Museum Hotel,200 NE A St,Bentonville,AR,72712,1,Public - Call ahead,,36.373932,-94.2077,12/11/18,64389,J1772,public
ELEC,Arkansas Early Learning - Jonesboro,2200 E Matthews Ave,Jonesboro,AR,72401,1,Private,,35.834969,-90.679264,4/3/18,64390,J1772,private
ELEC,Arkansas Early Learning - Wynne Head Start,320 Magnolia St,Wynne,AR,72396,1,Private,,35.23795,-90.791657,4/3/18,64391,J1772,private
ELEC,Arkansas Early Learning - Carlew Templeton,3119 Highway 367 N,Newport,AR,72112,1,Private,,35.634389,-91.251839,4/3/18,64392,J1772,private
ELEC,STATION1,7935-8099 State Hwy 176,North Little Rock,AR,72118,1,Public,ChargePoint Network,34.8196401,-92.2767486,3/8/19,66366,J1772,public
ELEC,WHOLE FOODS MKT,501 S Bowman Rd,Little Rock,AR,72211,1,Public,ChargePoint Network,34.7494761,-92.4068334,3/8/19,66603,J1772,public
ELEC,VILLA 1,8000 River Pointe Dr,North Little Rock,AR,72113,1,Public,ChargePoint Network,34.8227929,-92.3866091,3/8/19,70956,J1772,public
ELEC,BMW LITTLE ROCK,4601 Colonel Glenn Plaza Dr,Little Rock,AR,72210,1,Public,ChargePoint Network,34.714517,-92.4044,3/8/19,73529,J1772,public
ELEC,WHOLE FOODS MKT,3425 N College Ave,Fayetteville,AR,72703,1,Public,ChargePoint Network,36.1132725,-94.1450403,3/8/19,74044,J1772,public
ELEC,HPER STATIONS,Robins St,Conway,AR,72034,1,Public,ChargePoint Network,35.0774568,-92.4615721,3/8/19,75594,J1772,public
ELEC,Holiday Inn,3201 Bankhead Dr,Little Rock,AR,72206,1,Public,,34.715519,-92.222435,12/11/18,79761,J1772,public
ELEC,Central Arkansas Main Library - Parking Deck,100 Rock St,Little Rock,AR,72201,1,Public,,34.746977,-92.267343,6/5/18,80095,J1772,public
ELEC,Arkansas Early Learning - West Memphis,111 E Jackson Ave,West Memphis,AR,72301,1,Private,,35.139033,-90.184062,4/3/18,81824,J1772,private
ELEC,AECC-AECI,1 81st St,Little Rock,AR,72209,1,Public,ChargePoint Network,34.6773912,-92.3220347,3/8/19,88733,J1772,public
ELEC,BMW ARKANSAS,2472-2510 SE Moberly Ln,Bentonville,AR,72712,1,Public,ChargePoint Network,36.3457008,-94.1841546,3/8/19,89786,J1772,public
ELEC,Sam's Club,3500 SE Club Blvd,Bentonville,AR,72712,1,Public - Card key at all times,eVgo Network,36.352428,-94.171658,3/8/19,93487,CHADEMO,public
ELEC,PARKING 2A,4305 W Markham St,Little Rock,AR,72205,1,Public,ChargePoint Network,34.7515015,-92.321124,3/8/19,93761,J1772,public
ELEC,Arkansas Early Learning - Lawrence Hamilton,2114 N Church St,Jonesboro,AR,72401,1,Private,,35.865545,-90.702385,4/3/18,93838,J1772,private
ELEC,Arkansas Early Learning - Mary Ann Arnold,33900 Highway 63 E,Marked Tree,AR,72365,1,Private,,35.525986,-90.438794,4/3/18,93839,J1772,private
ELEC,SAGE5100,5100 West JB Hunt Drive,Rogers,AR,72758,1,Public,ChargePoint Network,36.300992,-94.1883245,3/8/19,99487,J1772,public
ELEC,Walmart Supercenter,2400 N Hervey St,Hope,AR,71801,1,Public - Credit card at all times,Electrify America,33.683274,-93.613934,3/7/19,100022,CHADEMO,public
ELEC,Outlets of Little Rock - Tesla Supercharger,11201 Bass Pro Pkwy,Little Rock,AR,72210,1,Public,Tesla,34.661988,-92.407727,9/10/18,101979,TESLA,public
ELEC,Federal Correction Institution - Forrest City,1400 Dale Bumpers Rd,Forrest City,AR,72335,1,Private,,34.981346,-90.802665,9/10/18,102617,J1772,private
ELEC,Walmart Supercenter,205 Deaderick Rd,Forrest City,AR,72335,1,Public - Credit card at all times,Electrify America,35.0288211,-90.79313959,3/7/19,102711,CHADEMO,public
ELEC,AECC-AECI,I-30 Frontage Rd,Little Rock,AR,72209,1,Public,ChargePoint Network,34.6777153,-92.3246831,3/8/19,104972,J1772,public
ELEC,HONDA WORLD,450 E Dave Ward Dr,Conway,AR,72032,1,Public,ChargePoint Network,35.0672664,-92.4234514,3/8/19,105083,J1772,public
ELEC,228,916 West Monroe Ave,Lowell,AR,72745,1,Public,ChargePoint Network,36.2560588,-94.1551336,3/8/19,105370,J1772,public
ELEC,Fairfield Inn & Suites - Little Rock - Tesla Destination,17320 I-30,Benton,AR,72019,1,Public,Tesla Destination,34.579155,-92.582471,1/10/19,112725,TESLA,public
ELEC,21c Hotel - Bentonville - Tesla Destination,200 NE A St,Bentonville,AR,72712,1,Public,Tesla Destination,36.373932,-94.2077,1/10/19,112726,TESLA,public
ELEC,Holiday Inn Express & Suites - Conway - Tesla Destination,2330 Sanders Rd,Conway,AR,72032,1,Public,Tesla Destination,35.10881,-92.435252,1/10/19,112727,TESLA,public
ELEC,Candlewood Suites - Conway - Tesla Destination,2360 Sanders Rd,Conway,AR,72032,1,Public,Tesla Destination,35.109449,-92.435275,1/10/19,112728,TESLA,public
ELEC,Comfort Inn & Suites - Conway - Tesla Destination,2370 Sanders Rd,Conway,AR,72032,1,Public,Tesla Destination,35.109465,-92.434712,1/10/19,112729,TESLA,public
ELEC,Comfort Suites - Conway - Tesla Destination,705 Museum Rd,Conway,AR,72032,1,Public,Tesla Destination,35.090181,-92.419803,1/10/19,112730,TESLA,public
ELEC,The Inn at Rose Hall - Tesla Destination,56 Hillside Ave,Eureka Springs,AR,72632,1,Public,Tesla Destination,36.41052,-93.734477,1/10/19,112731,TESLA,public
ELEC,Arsenic and Old Lace Bed & Breakfast Inn - Tesla Destination,60 Hillside Ave,Eureka Springs,AR,72632,1,Public - Call ahead,Tesla Destination,36.41084,-93.734727,1/10/19,112732,TESLA,public
ELEC,Lindsey's Resort - Tesla Destination,350 Rainbow Loop,Heber Springs,AR,72543,1,Public,Tesla Destination,35.518625,-91.956166,1/10/19,112733,TESLA,public
ELEC,The Hotel Hot Springs and Spa - Tesla Destination,305 Malvern Ave,Hot Springs,AR,71901,1,Public,Tesla Destination,34.509016,-93.052981,1/10/19,112734,TESLA,public
ELEC,Arlington Resort Hotel & Spa - Tesla Destination,239 Central Ave,Hot Springs National Park,AR,71901,1,Public,Tesla Destination,34.516964,-93.053366,1/10/19,112735,TESLA,public
ELEC,Lookout Point Lakeside Inn - Tesla Destination,104 Lookout Cir,Lake Hamilton,AR,71913,1,Public,Tesla Destination,34.427958,-93.085279,1/10/19,112736,TESLA,public
ELEC,Electric Co-op of Arkansas - Tesla Destination,1 Cooperative Way,Little Rock,AR,72209,1,Public,Tesla Destination,34.676799,-92.323765,1/10/19,112737,TESLA,public
ELEC,The Capital Hotel - Tesla Destination,111 W Markham St,Little Rock,AR,72201,1,Public,Tesla Destination,34.747892,-92.27126,1/10/19,112738,TESLA,public
ELEC,Wingate by Wyndham - Little Rock - Tesla Destination,1212 S Shackleford Rd,Little Rock,AR,72211,1,Public,Tesla Destination,34.742085,-92.394603,1/10/19,112739,TESLA,public
ELEC,Residence Inn - Little Rock - Tesla Destination,1401 S Shackleford Rd,Little Rock,AR,72211,1,Public,Tesla Destination,34.741428,-92.393729,1/10/19,112740,TESLA,public
ELEC,Holiday Inn - Airport Conference Center Little Rock - Tesla Destination,3201 Bankhead Dr,Little Rock,AR,72206,1,Public,Tesla Destination,34.715519,-92.222435,1/10/19,112741,TESLA,public
ELEC,Red Roof Inn - Little Rock - Tesla Destination,8115 Frenchmans Ln,Little Rock,AR,72209,1,Public,Tesla Destination,34.676376,-92.345914,1/10/19,112742,TESLA,public
ELEC,Embassy Suites - Little Rock - Tesla Destination,11301 Financial Centre Pkwy,Little Rock,AR,72211,1,Public,Tesla Destination,34.746033,-92.400084,1/10/19,112743,TESLA,public
ELEC,GuestHouse Inn & Suites Little Rock - Tesla Destination,301 S University Ave,Little Rock,AR,72205,1,Public,Tesla Destination,34.749112,-92.340476,1/10/19,112744,TESLA,public
ELEC,Markham House Suites Little Rock Medical Center - Tesla Destination,5120 W Markham St,Little Rock,AR,72205,1,Public,Tesla Destination,34.752447,-92.331292,1/10/19,112745,TESLA,public
ELEC,Wingate by Wyndham - North Little Rock - Tesla Destination,4801 W Commercial Dr,North Little Rock,AR,72116,1,Public,Tesla Destination,34.79781,-92.220233,1/10/19,112746,TESLA,public
ELEC,Best Western - Sherwood Inn & Suites - Tesla Destination,7533 Warden Rd,North Little Rock,AR,72120,1,Public,Tesla Destination,34.825332,-92.193269,1/10/19,112747,TESLA,public
ELEC,Lesmeister Guesthouse - Tesla Destination,208 N Marr St,Pocahontas,AR,72455,1,Public,Tesla Destination,36.26203,-90.970012,1/10/19,112748,TESLA,public
ELEC,Super 8 - Russellville - Tesla Destination,2404 N Arkansas Ave,Russellville,AR,72802,1,Public,Tesla Destination,35.304312,-93.136571,1/10/19,112749,TESLA,public
ELEC,"County Line Liquors, Inc. - Tesla Destination",2885 N Thompson St,Springdale,AR,72764,1,Public,Tesla Destination,36.210152,-94.137354,1/10/19,112750,TESLA,public
ELEC,OZARKS PARKING,3641 W Wedington Dr,Fayetteville,AR,72704,1,Public,ChargePoint Network,36.077018,-94.212284,3/8/19,117183,J1772,public
ELEC,SIR CHARGE ALOT,1384 W Showroom Dr,Fayetteville,AR,72704,1,Public,ChargePoint Network,36.109194,-94.178477,3/8/19,119037,J1772,public
ELEC,TUCSON RENTAL,9855 E Speedway Blvd,Tucson,AZ,85748,1,Public,ChargePoint Network,32.2361565,-110.7817917,3/8/19,36343,J1772,public
ELEC,Avondale Nissan,10305 W Papago Fwy,Avondale,AZ,85323,1,Public - Call ahead,,33.459826,-112.284168,6/5/18,39853,J1772,public
ELEC,AutoNation Nissan - Chandler,1350 S Gilbert Rd,Chandler,AZ,85286,1,Public - Call ahead,,33.289054,-111.789682,6/5/18,39854,CHADEMO,public
ELEC,Anderson Nissan,3842 N Highway 95,Lake Havasu City,AZ,86404,1,Public - Call ahead,,34.54217,-114.35287,6/5/18,39855,J1772,public
ELEC,East Valley Nissan,6354 E Test Dr,Mesa,AZ,85206,1,Public - Call ahead,,33.385361,-111.695062,6/5/18,39856,J1772,public
ELEC,Larry H Miller Nissan - Mesa,2025 W Riverview Auto Dr,Mesa,AZ,85201,1,Public - Call ahead,,33.434953,-111.87131,6/5/18,39857,CHADEMO,public
ELEC,Peoria Nissan,9151 W Bell Rd,Peoria,AZ,85382,1,Public - Call ahead,,33.636921,-112.253682,6/5/18,39858,J1772,public
ELEC,ABC Nissan,1300 E Camelback Rd,Phoenix,AZ,85014,1,Public - Call ahead,,33.509478,-112.054694,6/5/18,39859,CHADEMO,public
ELEC,Coulter Nissan,13301 N Autoshow Ave,Surprise,AZ,85388,1,Public - Call ahead,,33.605183,-112.420442,6/5/18,39860,J1772,public
ELEC,Midway Nissan,2201 W Bell Rd,Phoenix,AZ,85023,1,Public - Call ahead,,33.639324,-112.107983,7/9/18,39861,J1772,public
ELEC,Pinnacle Nissan,7601 E Frank Lloyd Wright Blvd,Scottsdale,AZ,85260,1,Public - Call ahead,Greenlots,33.635224,-111.915739,6/5/18,39862,CHADEMO,public
ELEC,AutoNation Nissan - Tempe,7755 S Autoplex Loop,Tempe,AZ,85284,1,Public - Call ahead,,33.346812,-111.967793,7/9/18,39863,J1772,public
ELEC,Jim Click Nissan,800 W Auto Mall Dr,Tucson,AZ,85705,1,Public - Call ahead,,32.290005,-110.985315,3/7/19,39864,CHADEMO,public
ELEC,Thoroughbred Nissan,5163 E 22nd St,Tucson,AZ,85711,1,Public - Call ahead,,32.207374,-110.881798,6/5/18,39865,J1772,public
ELEC,Avondale Nissan,10305 W Papago Fwy,Avondale,AZ,85323,1,Private,,33.459826,-112.284168,6/5/18,48332,J1772,private
ELEC,AutoNation Nissan - Chandler,1350 S Gilbert Rd,Chandler,AZ,85286,1,Private,,33.289054,-111.789682,6/5/18,48334,J1772,private
ELEC,Anderson Nissan,3842 N Highway 95,Lake Havasu City,AZ,86404,1,Private,,34.54217,-114.35287,6/5/18,48335,J1772,private
ELEC,East Valley Nissan,6354 E Test Dr,Mesa,AZ,85206,1,Private,,33.385361,-111.695062,6/5/18,48337,J1772,private
ELEC,Larry H Miller Nissan - Mesa,2025 W Riverview Auto Dr,Mesa,AZ,85201,1,Private,,33.434953,-111.87131,6/5/18,48338,J1772,private
ELEC,Peoria Nissan,9151 W Bell Rd,Peoria,AZ,85382,1,Private,,33.636921,-112.253682,6/5/18,48339,J1772,private
ELEC,Coulter Nissan,13301 N Autoshow Ave,Surprise,AZ,85388,1,Private,,33.605183,-112.420442,6/5/18,48340,J1772,private
ELEC,Midway Nissan,2201 W Bell Rd,Phoenix,AZ,85023,1,Private,,33.639324,-112.107983,7/9/18,48341,J1772,private
ELEC,Pinnacle Nissan,7601 E Frank Lloyd Wright Blvd,Scottsdale,AZ,85260,1,Private,,33.635224,-111.915739,6/5/18,48344,J1772,private
ELEC,AutoNation Nissan - Tempe,7755 S Autoplex Loop,Tempe,AZ,85284,1,Private,,33.346812,-111.967793,7/9/18,48345,J1772,private
ELEC,ABC Nissan,1300 E Camelback Rd,Phoenix,AZ,85014,1,Private,,33.509478,-112.054694,6/5/18,48346,J1772,private
ELEC,Thoroughbred Nissan,5163 E 22nd St,Tucson,AZ,85711,1,Private,,32.207374,-110.881798,6/5/18,48350,J1772,private
ELEC,IPA PARTNERS,3250 S. Arizona Ave,Chandler,AZ,85248,1,Public,ChargePoint Network,33.258568,-111.843316,3/8/19,50423,J1772,public
ELEC,CHAPMAN BMW CMK,830 E Camelback Rd,Phoenix,AZ,85014,1,Public,ChargePoint Network,33.510327,-112.062175,3/8/19,58318,J1772,public
ELEC,CHAPMAN BMW,7455 W Orchid Ln,Chandler,AZ,85224,1,Public,ChargePoint Network,33.3230115,-111.9708821,3/8/19,61294,J1772,public
ELEC,CHAPMAN BMW,7455 W Orchid Ln,Chandler,AZ,85226,1,Public,ChargePoint Network,33.322956,-111.9710071,3/8/19,61295,J1772,public
ELEC,Phoenix Children's Hospital,1919 E Thomas,Phoenix,AZ,85016,1,Private,,33.480216,-112.041193,10/4/18,61762,J1772,private
ELEC,FOOTHILLS,18221 N Pima Rd,Scottsdale,AZ,85255,1,Public,ChargePoint Network,33.6512174,-111.88588,3/8/19,62513,J1772,public
ELEC,IPA PARTNERS,15509 N Scottsdale Rd,Scottsdale,AZ,85254,1,Public,ChargePoint Network,33.6276155,-111.9236673,3/8/19,64228,J1772,public
ELEC,VASEO,16220 N 7th St,Phoenix,AZ,85022,1,Public,ChargePoint Network,33.63602,-112.066793,3/8/19,64817,J1772,public
ELEC,TECH DATA CORP,8700 S Price Rd,Tempe,AZ,85284,1,Public,ChargePoint Network,33.3376573,-111.8949302,3/8/19,64970,J1772,public
ELEC,IPA PARTNERS,455 S Recker Rd,Gilbert,AZ,85234,1,Public,ChargePoint Network,33.342279,-111.702348,3/8/19,64976,J1772,public
ELEC,Blink Phoenix HQ,435 South 3rd Avenue,Phoenix,AZ,85003,1,Public - Card key at all times,SemaCharge Network,33.4436726,-112.0776031,3/8/19,65827,J1772,public
ELEC,IPA PARTNERS,16025 S 50th St,Phoenix,AZ,85048,1,Public,ChargePoint Network,33.300743,-111.974872,3/8/19,66290,J1772,public
ELEC,COLLIER1,201 E Washington St,Phoenix,AZ,85004,1,Public,ChargePoint Network,33.447942,-112.0704092,3/8/19,66794,J1772,public
ELEC,GLENDALE,6800 N 95th Ave,Glendale,AZ,85305,1,Public,ChargePoint Network,33.534838,-112.266883,3/8/19,68168,J1772,public
ELEC,Harrah's Ak-Chin Casino,15406 N Maricopa Rd,Maricopa,AZ,85139,1,Public,,33.0238,-112.0502,5/3/18,68409,J1772,public
ELEC,PONDEROSA HOTEL,200 E Sheldon St,Prescott,AZ,86301,1,Public,ChargePoint Network,34.5460552,-112.466839,3/8/19,68834,J1772,public
ELEC,EV CHARGER,15406 W Maricopa Rd,Ak-Chin Indian Community,AZ,85239,1,Public,ChargePoint Network,33.0246544,-112.0493521,3/8/19,69171,J1772,public
ELEC,AZ AVILLA,4200 N Falcon Dr,Goodyear,AZ,85395,1,Public,ChargePoint Network,33.4941696,-112.3870961,3/8/19,69173,J1772,public
ELEC,Holiday Inn & Suites,14255 N 87th St,Scottsdale,AZ,85260,1,Public,,33.614103,-111.893012,10/4/18,69739,J1772,public
ELEC,FOOTHILLS,9009 Legacy Blvd,Scottsdale,AZ,85255,1,Public,ChargePoint Network,33.6529964,-111.8850715,3/8/19,71244,J1772,public
ELEC,FOOTHILLS,18245 N Pima Rd,Scottsdale,AZ,85255,1,Public,ChargePoint Network,33.650082,-111.887795,3/8/19,71246,J1772,public
ELEC,CHANDLER,2777 S. Arizona Ave,Chandler,AZ,85286,1,Public,ChargePoint Network,33.265079,-111.839104,3/8/19,71919,J1772,public
ELEC,Best Western Plus,1200 W Arizona 89A,Sedona,AZ,86336,1,Public,,34.862584,-111.782467,10/4/18,72208,J1772,public
ELEC,Enchantment Resort and Mii Amo Spa,525 Boynton Canyon Rd,Sedona,AZ,86336,1,Public,,34.913576,-111.853162,10/4/18,72219,J1772,public
ELEC,OC2 Station C,4500 South Dobson Rd,Chandler,AZ,85248,1,Private,GE WattStation,33.25424823,-111.8834006,3/8/19,72840,J1772,private
ELEC,OC2 Station A,4500 South Dobson Rd,Chandler,AZ,85248,1,Private,GE WattStation,33.2455926,-111.8809555,3/8/19,72844,J1772,private
ELEC,CH3 Station C,5000  W Chandler Blvd,Chandler,AZ,85226,1,Private,GE WattStation,33.3055452,-111.9347082,3/8/19,72847,J1772,private
ELEC,CH3 Station B,5000  W Chandler Blvd,Chandler,AZ,85226,1,Private,GE WattStation,33.3054952,-111.9346582,3/8/19,72857,J1772,private
ELEC,CH7 Station A,5000  W Chandler Blvd,Chandler,AZ,85226,1,Private,GE WattStation,33.31144887,-111.9347082,3/8/19,72858,J1772,private
ELEC,CH6 Station A,5000  W Chandler Blvd,Chandler,AZ,85226,1,Private,GE WattStation,33.31094677,-111.9347782,3/8/19,72859,J1772,private
ELEC,CH7 Station B,5000  W Chandler Blvd,Chandler,AZ,85226,1,Private,GE WattStation,33.31094677,-111.9345365,3/8/19,72866,J1772,private
ELEC,CH6 Station C,5000  W Chandler Blvd,Chandler,AZ,85226,1,Private,GE WattStation,33.31116195,-111.9352232,3/8/19,72867,J1772,private
ELEC,CH3 Station A,5000  W Chandler Blvd,Chandler,AZ,85226,1,Private,GE WattStation,33.3054952,-111.9347582,3/8/19,72870,J1772,private
ELEC,CH6 Station B,5000  W Chandler Blvd,Chandler,AZ,85226,1,Private,GE WattStation,33.31103643,-111.9355236,3/8/19,72874,J1772,private
ELEC,OC2 Station G,4500 South Dobson Rd,Chandler,AZ,85248,1,Private,GE WattStation,33.24122,-111.883186,3/8/19,72881,J1772,private
ELEC,OC2 Station D,4500 South Dobson Rd,Chandler,AZ,85248,1,Private,GE WattStation,33.25199624,-111.8833255,3/8/19,72882,J1772,private
ELEC,OC2 Station F,4500 South Dobson Rd,Chandler,AZ,85248,1,Private,GE WattStation,33.24563474,-111.8826427,3/8/19,72884,J1772,private
ELEC,OC2 Station E,4500 South Dobson Rd,Chandler,AZ,85248,1,Private,GE WattStation,33.24908024,-111.883701,3/8/19,72890,J1772,private
ELEC,OC2 Station B,4500 South Dobson Rd,Chandler,AZ,85248,1,Private,GE WattStation,33.245392,-111.872648,3/8/19,72893,J1772,private
ELEC,OC2 Station H,4500 South Dobson Rd,Chandler,AZ,85248,1,Private,GE WattStation,33.24728573,-111.8827139,3/8/19,72894,J1772,private
ELEC,GE at Blink HQ,430  S 2nd Ave,Phoenix,AZ,85003,1,Private,GE WattStation,33.4436943,-112.0763971,3/8/19,72900,J1772,private
ELEC,PB BELL,4720 N 16th St,Phoenix,AZ,85016,1,Public,ChargePoint Network,33.506501,-112.048327,3/8/19,73217,J1772,public
ELEC,Holiday Inn Express & Suites,1890 E Ash St,Globe,AZ,85501,1,Public,,33.387396,-110.760174,10/4/18,73227,J1772,public
ELEC,Quality Inn Pinetop,458 E White Mountain Blvd,Pinetop,AZ,85935,1,Public,,34.13494,-109.948953,10/4/18,73228,J1772,public
ELEC,Holiday Inn Express & Suites,1150 W Cataract Lake Rd,Williams,AZ,86046,1,Public,,35.251115,-112.198401,10/4/18,73714,J1772,public
ELEC,HAYDEN,800 E Curry Rd,Tempe,AZ,85281,1,Public,ChargePoint Network,33.44053,-111.927415,3/8/19,75519,J1772,public
ELEC,KIERLAND II,16260 N 71st St,Scottsdale,AZ,85254,1,Public,ChargePoint Network,33.635256,-111.928824,3/8/19,75681,J1772,public
ELEC,DJD,3500 N Sabino Canyon Rd,Tucson,AZ,85750,1,Public,ChargePoint Network,32.2714404,-110.8398838,3/8/19,75774,J1772,public
ELEC,CITY SCAPE,50 W Washington St,Phoenix,AZ,85003,1,Public,ChargePoint Network,33.448484,-112.075012,3/8/19,76160,J1772,public
ELEC,CITY SCAPE,1 E Washington St,Phoenix,AZ,85004,1,Public,ChargePoint Network,33.447919,-112.073568,3/8/19,76161,J1772,public
ELEC,"AVNET, INC",2211 S. 47th Street,Phoenix,AZ,85034,1,Public,ChargePoint Network,33.4278812,-111.979992,3/8/19,76246,J1772,public
ELEC,YAMWW,15750 N Northsight Blvd,Scottsdale,AZ,85260,1,Public,ChargePoint Network,33.630851,-111.897562,3/8/19,76392,J1772,public
ELEC,THE CLARENDON,401 W Clarendon Ave,Phoenix,AZ,85013,1,Public,ChargePoint Network,33.4908719,-112.0793223,3/8/19,76836,J1772,public
ELEC,Northern Arizona University - Babbitt Administrative Center,P60,Flagstaff,AZ,86001,1,Public,,35.188598,-111.656847,8/7/18,76907,J1772,public
ELEC,Northern Arizona University - University Union,P16A,Flagstaff,AZ,86001,1,Public,,35.1884049,-111.656943,8/7/18,76908,J1772,public
ELEC,Northern Arizona University - San Francisco St. Parking Garage,P96B,Flagstaff,AZ,86001,1,Public,,35.1877222,-111.6535893,8/7/18,76909,J1772,public
ELEC,PEFO,Park Rd,Petrified Forest National Park,AZ,86028,1,Public,ChargePoint Network,35.0666175,-109.7819136,3/8/19,76932,J1772,public
ELEC,PIMA 9150,9150 E Del Camino Dr,Scottsdale,AZ,85258,1,Public,ChargePoint Network,33.5556675,-111.8862175,3/8/19,76939,J1772,public
ELEC,PEFO,6492 Petrified Forest Rd,Holbrook,AZ,86025,1,Public,ChargePoint Network,34.7921305,-109.8911427,3/8/19,77223,J1772,public
ELEC,Veterans Administration Healthcare - Tucson,3601 S 6th Ave,Tucson,AZ,85012,1,Private - Government only,,32.181434,-110.968281,1/10/19,77653,J1772,private
ELEC,JLB BUILDERS,4848 N Portales Pl,Scottsdale,AZ,85251,1,Public,ChargePoint Network,33.5084641,-111.9297962,3/8/19,78374,J1772,public
ELEC,TEMPE MARKET,2000 E Rio Salado Pkwy,Tempe,AZ,85281,1,Public,ChargePoint Network,33.429776,-111.898885,3/8/19,78504,J1772,public
ELEC,TEMPE MARKET,43 S McClintock Dr,Tempe,AZ,85281,1,Public,ChargePoint Network,33.431326,-111.9065465,3/8/19,78537,J1772,public
ELEC,COOPER 202,1450 S Cooper Rd,Chandler,AZ,85286,1,Public,ChargePoint Network,33.285402,-111.808255,3/8/19,78569,J1772,public
ELEC,GUEST RANCH,5501 N Hacienda Del Sol Rd,Tucson,AZ,85718,1,Public,ChargePoint Network,32.3071714,-110.915041,3/8/19,78947,J1772,public
ELEC,Lawley Nissan,2960 E Fry Blvd,Sierra Vista,AZ,85635,1,Public - Call ahead,,31.554201,-110.268313,6/5/18,79028,J1772,public
ELEC,Sonora Nissan,3160 S Pacific Ave,Yuma,AZ,85365,1,Public - Call ahead,,32.670507,-114.599182,6/5/18,79036,J1772,public
ELEC,Lawley Nissan,2960 E Fry Blvd,Sierra Vista,AZ,85635,1,Private,,31.554201,-110.268313,6/5/18,79060,J1772,private
ELEC,Sonora Nissan,3160 S Pacific Ave,Yuma,AZ,85365,1,Private,,32.670507,-114.599182,6/5/18,79068,J1772,private
ELEC,VELA1,555 N College Ave,Tempe,AZ,85281,1,Public,ChargePoint Network,33.434834,-111.930314,3/8/19,79153,J1772,public
ELEC,DESERT RIDGE,21000 N Tatum Blvd,Phoenix,AZ,85050,1,Public,ChargePoint Network,33.677792,-111.977707,3/8/19,79690,J1772,public
ELEC,ADEQ,1010 W Washington St,Phoenix,AZ,85007,1,Public,ChargePoint Network,33.4484672,-112.0866552,3/8/19,79956,J1772,public
ELEC,"AVNET, INC",60 S McKemy Ave,Chandler,AZ,85226,1,Public,ChargePoint Network,33.3021433,-111.9552863,3/8/19,79973,J1772,public
ELEC,ADEQ,100 N. 15th Ave.,Phoenix,AZ,85007,1,Public,ChargePoint Network,33.4493894,-112.0926391,3/8/19,80014,J1772,public
ELEC,APS,565 N 3rd St,Phoenix,AZ,85004,1,Public,ChargePoint Network,33.453744,-112.069343,3/8/19,80835,J1772,public
ELEC,WESTIN KIERLAND,6902 E Greenway Pkwy,Scottsdale,AZ,85254,1,Public,ChargePoint Network,33.6254705,-111.9328156,3/8/19,81014,J1772,public
ELEC,THE TOMSCOT,3015 N Scottsdale Rd,Scottsdale,AZ,85251,1,Public,ChargePoint Network,33.482057,-111.925346,3/8/19,81425,J1772,public
ELEC,STEELYARD,143 E Frye Rd,Chandler,AZ,85225,1,Public,ChargePoint Network,33.298575,-111.839288,3/8/19,81622,J1772,public
ELEC,LENNAR,1221 E Apache Blvd,Tempe,AZ,85281,1,Public,ChargePoint Network,33.414019,-111.918227,3/8/19,82123,J1772,public
ELEC,IPA PARTNERS,15509 n scotsdale road,Scottsdale,AZ,85260,1,Public,ChargePoint Network,33.6269838,-111.9233992,3/8/19,82293,J1772,public
ELEC,LENNAR,1602-1616 N Central Ave,Phoenix,AZ,85004,1,Public,ChargePoint Network,33.466021,-112.07414,3/8/19,82306,J1772,public
ELEC,LENNAR,1626 N Central Ave,Phoenix,AZ,85004,1,Public,ChargePoint Network,33.4666785,-112.0739663,3/8/19,82307,J1772,public
ELEC,STATION 1,14350 N 87th St,Scottsdale,AZ,85260,1,Public,ChargePoint Network,33.6156339,-111.89454,3/8/19,82483,J1772,public
ELEC,MAYO CLINIC,5777 E Mayo Blvd,Phoenix,AZ,85054,1,Public,ChargePoint Network,33.6599666,-111.956918,3/8/19,82599,J1772,public
ELEC,MAYO CLINIC,13400 E Shea Blvd,Scottsdale,AZ,85259,1,Public,ChargePoint Network,33.5860825,-111.7941177,3/8/19,82602,J1772,public
ELEC,AZ AVILLA,20450-20498 E Ocotillo Rd,Queen Creek,AZ,85142,1,Public,ChargePoint Network,33.2486973,-111.6421077,3/8/19,82817,J1772,public
ELEC,151 PARKING GAR,150 N 18th Ave,Phoenix,AZ,85007,1,Public,ChargePoint Network,33.4499829,-112.0978844,3/8/19,85633,J1772,public
ELEC,ESPLANADE,2501 E Camelback Rd,Phoenix,AZ,85016,1,Public,ChargePoint Network,33.50915,-112.027931,3/8/19,85901,J1772,public
ELEC,ESPLANADE,2508 E Esplanade Ln,Phoenix,AZ,85016,1,Public,ChargePoint Network,33.5081047,-112.0275682,3/8/19,85902,J1772,public
ELEC,ESPLANADE,2470-2508 E Esplanade Ln,Phoenix,AZ,85016,1,Public,ChargePoint Network,33.508086,-112.026135,3/8/19,85903,J1772,public
ELEC,SCOTTFORUM,6263 N Scottsdale Rd,Scottsdale,AZ,85250,1,Public,ChargePoint Network,33.528609,-111.924837,3/8/19,86892,J1772,public
ELEC,INSPIRE,7320 E Earll Dr,Scottsdale,AZ,85251,1,Public,ChargePoint Network,33.48433,-111.9232334,3/8/19,88100,J1772,public
ELEC,STATION1,24641 E Pinal Airpark Rd WAATS L4500,Marana,AZ,85653,1,Public,ChargePoint Network,32.5208999,-111.3298271,3/8/19,88188,J1772,public
ELEC,CHARGEPOINT,7250 N Dobson Rd,Scottsdale,AZ,85256,1,Public,ChargePoint Network,33.542239,-111.87429,3/8/19,88534,J1772,public
ELEC,JLB BUILDERS,4690 S Lakeshore Dr,Tempe,AZ,85283,1,Public,ChargePoint Network,33.3801651,-111.9227706,3/8/19,88653,J1772,public
ELEC,AZ AVILLA,255 E Chandler Heights Rd,Chandler,AZ,85248,1,Public,ChargePoint Network,33.2324967,-111.8379403,3/8/19,89206,J1772,public
ELEC,AAA NCNU,1050 E Camelback Rd AAA,Phoenix,AZ,85014,1,Public,ChargePoint Network,33.5093609,-112.0585089,3/8/19,92221,J1772,public
ELEC,AAA NCNU,6948 N Oracle Rd AAA,Tucson,AZ,85704,1,Public,ChargePoint Network,32.3329702,-110.9761993,3/8/19,92230,J1772,public
ELEC,AAA NCNU,7432-7438 W Thunderbird Rd AAA,Peoria,AZ,85381,1,Public,ChargePoint Network,33.610602,-112.218863,3/8/19,92235,J1772,public
ELEC,AAA NCNU,16801-16963 N 41st St AAA,Phoenix,AZ,85032,1,Public,ChargePoint Network,33.6402206,-111.9927257,3/8/19,92236,J1772,public
ELEC,AAA NCNU,16801-16963 N 41st St,Phoenix,AZ,85032,1,Public,ChargePoint Network,33.6402147,-111.9927019,3/8/19,92237,J1772,public
ELEC,AAA NCNU,4126 E Valley Auto Dr,Mesa,AZ,85206,1,Public,ChargePoint Network,33.3827699,-111.744527,3/8/19,92238,J1772,public
ELEC,AAA NCNU,4040 W Ray Rd AAA,Chandler,AZ,85226,1,Public,ChargePoint Network,33.3206473,-111.9132068,3/8/19,92239,J1772,public
ELEC,DC SOLAR,7602 S Avondale Blvd,Avondale,AZ,85323,1,Public,ChargePoint Network,33.3740167,-112.3194835,3/8/19,92438,J1772,public
ELEC,JLB BUILDERS,1030 E Minton Dr,Tempe,AZ,85282,1,Public,ChargePoint Network,33.3796751,-111.9248618,3/8/19,92446,J1772,public
ELEC,LENNAR,1221 Apache Blvd,Tempe,AZ,85281,1,Public,ChargePoint Network,33.4144342,-111.9181382,3/8/19,92464,J1772,public
ELEC,PB BELL,1439 S Val Vista Dr,Mesa,AZ,85204,1,Public,ChargePoint Network,33.3880665,-111.7543304,3/8/19,92467,J1772,public
ELEC,DC SOLAR,S Cotton Ln,Tolleson,AZ,85353,1,Public,ChargePoint Network,33.3750367,-112.3194989,3/8/19,92478,J1772,public
ELEC,CHARGE POINT 1,1901 W Germann Rd,Chandler,AZ,85286,1,Public,ChargePoint Network,33.2753717,-111.8744713,3/8/19,92509,J1772,public
ELEC,Scottsdale Fashion Square - Gold Garage,7014 E Camelback Rd,Scottsdale,AZ,85251,1,Public - Card key at all times,eVgo Network,33.50387,-111.92678,3/8/19,93189,CHADEMO,public
ELEC,Chandler Fashion Center,3155 W Chandler Blvd,Chandler,AZ,85226,1,Public - Card key at all times,eVgo Network,33.299839,-111.897957,3/8/19,93202,CHADEMO,public
ELEC,Mesa Pavillions North,7040 E Hampton Ave,Mesa,AZ,85209,1,Public - Card key at all times,eVgo Network,33.39051,-111.68068,3/8/19,93223,CHADEMO,public
ELEC,Arrowhead Towne Center,7700 W Arrowhead Towne Ctr,Glendale,AZ,85308,1,Public - Card key at all times,eVgo Network,33.64124,-112.22564,3/8/19,93231,CHADEMO,public
ELEC,Biltmore Fashion Park,2502 E Camelback Rd,Phoenix,AZ,85016,1,Public - Card key at all times,eVgo Network,33.51126,-112.02695,3/8/19,93234,CHADEMO,public
ELEC,Kierland Commons,15205 N Kierland Blvd Ste 150,Scottsdale,AZ,85254,1,Public - Card key at all times,eVgo Network,33.6254,-111.92847,3/8/19,93279,CHADEMO,public
ELEC,SanTan Village,2218 E Williams Field Rd,Gilbert,AZ,85295,1,Public - Card key at all times,eVgo Network,33.30945,-111.74138,3/8/19,93284,CHADEMO,public
ELEC,Arizona Mills,5000 S Arizona Mills Cir,Tempe,AZ,85282,1,Public - Card key at all times,eVgo Network,33.38091,-111.96333,3/8/19,93312,CHADEMO,public
ELEC,The Promenade at Casa Grande,1005 N Promenade Pkwy,Casa Grande,AZ,85194,1,Public - Card key at all times,eVgo Network,32.88052,-111.68335,3/8/19,93435,CHADEMO,public
ELEC,La Encantada,2905 E Skyline Dr,Tucson,AZ,85718,1,Public - Card key at all times,eVgo Network,32.325745,-110.92939,3/8/19,93475,CHADEMO,public
ELEC,Baggin's Gourmet Sandwiches & Catering,3191 E Valencia Rd,Tucson,AZ,85706,1,Public - Card key at all times,eVgo Network,32.134392,-110.924522,3/8/19,93553,CHADEMO,public
ELEC,AAA NCNU,4046 E Greenway Rd,Phoenix,AZ,85032,1,Public,ChargePoint Network,33.6270149,-111.9940597,3/8/19,93759,J1772,public
ELEC,MAIN STREET REL,8777 N Scottsdale Rd,Scottsdale,AZ,85253,1,Public,ChargePoint Network,33.564811,-111.925525,3/8/19,93771,J1772,public
ELEC,JLB BUILDERS,7150-7170 E Angus Dr,Scottsdale,AZ,85251,1,Public,ChargePoint Network,33.4864807,-111.9272012,3/8/19,94392,J1772,public
ELEC,JLB BUILDERS,3330 N Scottsdale Rd,Scottsdale,AZ,85251,1,Public,ChargePoint Network,33.4869015,-111.9275751,3/8/19,94393,J1772,public
ELEC,AAA NCNU,6948 N Oracle Rd,Tucson,AZ,85704,1,Public,ChargePoint Network,32.333159,-110.9763246,3/8/19,94529,J1772,public
ELEC,Arizona Inn,2200 E. Elm Street,Tucson,AZ,85719,1,Public,Blink Network,32.242606,-110.939512,3/8/19,95039,J1772,public
ELEC,Sunpower of Arizona,1135 N Jefferson Ave,Tucson,AZ,85712,1,Public,Blink Network,32.236947,-110.873403,3/8/19,95047,J1772,public
ELEC,Scottsdale Waterfront,"7135 E. Camelback Road, Suite 155",Scottsdale,AZ,85251,1,Public,Blink Network,33.501982,-111.927618,3/8/19,95060,J1772,public
ELEC,GeoInnovation LLC,2421 S 34th Place,Tucson,AZ,85713,1,Private,Blink Network,32.194663,-110.913521,3/8/19,95061,J1772,private
ELEC,Chandler Gilbert YMCA,1655 W. Frye Rd,Chandler,AZ,85224,1,Public,Blink Network,33.298039,-111.869555,3/8/19,95082,J1772,public
ELEC,Two Renaissance,40 N. Central,Phoenix,AZ,85004,1,Public,Blink Network,33.448935,-112.074859,3/8/19,95083,J1772,public
ELEC,JMIP Antique Mall,1509 N. Arizona Ave,Chandler,AZ,85225,1,Public,Blink Network,33.33112,-111.841078,3/8/19,95097,J1772,public
ELEC,Mesquite Library,4525 E Paradise Village Parkway North,Phoenix,AZ,85032,1,Public,Blink Network,33.604665,-111.983689,3/8/19,95117,J1772,public
ELEC,South Mountain Community College,7050 South 24th Street,Phoenix,AZ,85042,1,Public,Blink Network,33.382744,-112.03444,3/8/19,95127,J1772,public
ELEC,Tempe YMCA,7070 S. Rural,Tempe,AZ,85283,1,Public,Blink Network,33.355879,-111.928863,3/8/19,95130,J1772,public
ELEC,Porter-Acme,1425 N. 1st Street,Phoenix,AZ,85004,1,Public,Blink Network,33.464918,-112.071992,3/8/19,95155,J1772,public
ELEC,Shell Station 1990 - 2401 E. Van Buren Street,2401 E. Van Buren Street,Phoenix,AZ,85008,1,Public,Blink Network,33.451047,-112.02961,3/8/19,95169,J1772,public
ELEC,Shell Station 1199 - 6705 W. Bethany Home Road,6705 W. Bethany Home Road,Glendale,AZ,85303,1,Public,Blink Network,33.523474,-112.203513,3/8/19,95205,J1772,public
ELEC,Shell Station 496 - 5904 W. Greenway Road,5904 W. Greenway Road,Glendale,AZ,85306,1,Public,Blink Network,33.625377,-112.186071,3/8/19,95206,J1772,public
ELEC,Shell Station 13650 - 20210 N. Cave Creek Road,20210 N. Cave Creek Road,Phoenix,AZ,85024,1,Public,Blink Network,33.67,-112.031515,3/8/19,95210,J1772,public
ELEC,Tempe Public Library,3500 S. Rural Road,Tempe,AZ,85282,1,Public,Blink Network,33.390829,-111.927226,3/8/19,95211,J1772,public
ELEC,Fry's Store #81 Phoenix,2250 E. Baseline Rd.,Phoenix,AZ,85042,1,Public,Blink Network,33.377859,-112.034083,3/8/19,95212,J1772,public
ELEC,Infiniti of Scottsdale North of Dealership,7801 E. Frank Lloyd Wright Blvd.,Scottsdale,AZ,85260,1,Public,Blink Network,33.634113,-111.912335,3/8/19,95220,J1772,public
ELEC,Fry's Store #27 Phoenix,3616 E. Ray Rd.,Phoenix,AZ,85044,1,Public,Blink Network,33.316636,-112.004931,3/8/19,95227,J1772,public
ELEC,Fry's Store #73 Glendale,6625 W. Happy Valley Road,Glendale,AZ,85310,1,Public,Blink Network,33.711116,-112.201538,3/8/19,95228,J1772,public
ELEC,Fry's Store #134 Scottsdale,6080 E. Thomas,Scottsdale,AZ,85251,1,Public,Blink Network,33.480305,-111.950352,3/8/19,95229,J1772,public
ELEC,Fry's Store #54 Scottsdale,4842 E. Bell Rd.,Scottsdale,AZ,85254,1,Public,Blink Network,33.640675,-111.975666,3/8/19,95230,J1772,public
ELEC,Brooklyn Pizza,534 N. 4th Ave,Tucson,AZ,85705,1,Public,Blink Network,32.228759,-110.965274,3/8/19,95233,J1772,public
ELEC,Arizona Department of Environmental Quality,1110 W. Washington St,Phoenix,AZ,85007,1,Public,Blink Network,33.448382,-112.086578,3/8/19,95243,J1772,public
ELEC,Peoria Sports Complex,16101 N 83rd Avenue,Peoria,AZ,85382,1,Public,Blink Network,33.6312007,-112.2347564,3/8/19,95244,J1772,public
ELEC,Shell Station  - 675 W. Union Hills,675 W. Union Hills,Phoenix,AZ,85027,1,Public,Blink Network,33.6540264,-112.0821641,3/8/19,95249,J1772,public
ELEC,Old City Hall,12425 W. Bell Road,Surprise,AZ,85374,1,Public,Blink Network,33.638584,-112.355463,3/8/19,95256,J1772,public
ELEC,South Mountain YMCA,222 E. Olympic Dr,Phoenix,AZ,85042,1,Public,Blink Network,33.374269,-112.071155,3/8/19,95257,J1772,public
ELEC,Northwest Regional Library,16089 N. Bullard Ave.,Surprise,AZ,85374,1,Public,Blink Network,33.629861,-112.375857,3/8/19,95258,J1772,public
ELEC,Our Mother of Sorrows Catholic Church & School,1800 S. Kolb Road,Tucson,AZ,85710,1,Public,Blink Network,32.199152,-110.841545,3/8/19,95277,J1772,public
ELEC,Shell Station 15886 - 756 W. Southern Ave.,756 W. Southern Ave,Mesa,AZ,85210,1,Public,Blink Network,33.393765,-111.848284,3/8/19,95278,J1772,public
ELEC,Fry's Store #612 Phoenix,4707 E. Shea Blvd.,Phoenix,AZ,85028,1,Public,Blink Network,33.581299,-111.979134,3/8/19,95282,CHADEMO,public
ELEC,Mayo Clinic - Mayo Blvd,5777 E. Mayo Blvd,Phoenix,AZ,85054,1,Public,Blink Network,33.659908,-111.956896,3/8/19,95283,J1772,public
ELEC,Roosevelt Square Company,121 W. Portland St.,Phoenix,AZ,85003,1,Public,Blink Network,33.4598174,-112.0750629,3/8/19,95292,J1772,public
ELEC,Gold Canyon Plaza,3770 W. Ina Road,Tucson,AZ,85741,1,Public,Blink Network,32.338998,-111.045685,3/8/19,95295,J1772,public
ELEC,City of Chandler- Library,22 S. Delaware,Chandler,AZ,85225,1,Public,Blink Network,33.302825,-111.838401,3/8/19,95296,J1772,public
ELEC,Fry's Store #617 Phoenix,2727 W. Bell Rd.,Phoenix,AZ,85053,1,Public,Blink Network,33.639786,-112.119104,3/8/19,95297,J1772,public
ELEC,Chase Field,377 E Jackson St,Phoenix,AZ,85003,1,Public,Blink Network,33.445113,-112.06903,3/8/19,95298,J1772,public
ELEC,Bell Ford,2401 W. Bell Road,Phoenix,AZ,85023,1,Public,Blink Network,33.638743,-112.111308,3/8/19,95308,CHADEMO,public
ELEC,NextGen Apartments,18250 N 25th Ave,Phoenix,AZ,85023,1,Public,Blink Network,33.652811,-112.111939,3/8/19,95319,J1772,public
ELEC,GLL Properties Hines,2375 E Camelback,Phoenix,AZ,85016,1,Public,Blink Network,33.508006,-112.031942,3/8/19,95355,J1772,public
ELEC,Fry's Store #60 Glendale,20220 N. 59th Ave.,Glendale,AZ,85308,1,Public,Blink Network,33.669655,-112.188538,3/8/19,95361,J1772,public
ELEC,XTapa Joe's,7500 E. Pinnacle Peak Road,Scottsdale,AZ,85255,1,Public,Blink Network,33.69907,-111.917449,3/8/19,95363,J1772,public
ELEC,Scottsdale Healthcare,5040 E. Shea Blvd Ste 163,Scottsdale,AZ,85254,1,Public,Blink Network,33.582712,-111.973048,3/8/19,95369,J1772,public
ELEC,Bank of America Financial Building,1201 S. Alma School Rd,Mesa,AZ,85210,1,Public,Blink Network,33.392118,-111.856333,3/8/19,95370,J1772,public
ELEC,Fry's Store #121 Phoenix,4025 E. Thunderbird,Phoenix,AZ,85032,1,Public,Blink Network,33.611083,-111.994636,3/8/19,95371,J1772,public
ELEC,HelmsBriscoe,20875 N. 90th Place Ste,Scottsdale,AZ,85255,1,Public,Blink Network,33.674905,-111.885345,3/8/19,95385,J1772,public
ELEC,Rio Salado - Southern,3320 S Price Road,Tempe,AZ,85282,1,Public,Blink Network,33.391914,-111.89384,3/8/19,95386,J1772,public
ELEC,Woods Memorial Branch Library,3455 N. 1st Ave,Tucson,AZ,85719,1,Public,Blink Network,32.2697247,-110.9612533,3/8/19,95395,J1772,public
ELEC,Murphy Wilmot Library,530 N. Wilmot,Tucson,AZ,85711,1,Public,Blink Network,32.227709,-110.85774,3/8/19,95396,J1772,public
ELEC,Eckstron-Columbus Branch Library,4350 E. 22nd St,Tucson,AZ,85711,1,Public,Blink Network,32.206302,-110.900326,3/8/19,95397,J1772,public
ELEC,Himmel Park Branch Library,1035 North Treat,Tucson,AZ,85716,1,Public,Blink Network,32.234652,-110.931963,3/8/19,95398,J1772,public
ELEC,Martha Cooper Branch Library,1377 N. Catalina Ave,Tucson,AZ,85712,1,Public,Blink Network,32.239221,-110.899261,3/8/19,95399,J1772,public
ELEC,Fry's Store #69 Chandler,2010 S. Alma School Rd.,Chandler,AZ,85286,1,Public,Blink Network,33.276109,-111.85883,3/8/19,95406,J1772,public
ELEC,Fry's Store #72 Gilbert,87 E. Williams Field Rd,Gilbert,AZ,85295,1,Public,Blink Network,33.305393,-111.787279,3/8/19,95408,J1772,public
ELEC,Office Center,55 N Arizona Place,Chandler,AZ,85225,1,Public,Blink Network,33.304528,-111.84052,3/8/19,95411,J1772,public
ELEC,Phoenix Theatre,1625 N Central Ave,Phoenix,AZ,85004,1,Public,Blink Network,33.467302,-112.073412,3/8/19,95412,J1772,public
ELEC,Hi Corbett Field,700 S Randolph Way,Tucson,AZ,85716,1,Public,Blink Network,32.21270808,-110.9189373,3/8/19,95413,J1772,public
ELEC,Pennington St. Garage,110 E. Pennington,Tucson,AZ,85701,1,Public,Blink Network,32.223128,-110.96958,3/8/19,95414,J1772,public
ELEC,Apache Junction Multi-Generational Facility,1035 N. Idaho Road,Apache Junction,AZ,85119,1,Public,Blink Network,33.424161,-111.546109,3/8/19,95429,J1772,public
ELEC,Arizona Wine & Spirits,2515 N Scottsdale Road,Scottsdale,AZ,85257,1,Public,Blink Network,33.475302,-111.925588,3/8/19,95450,J1772,public
ELEC,Rio Salado Audubon Center,3131 South Central Ave,Phoenix,AZ,85040,1,Public,Blink Network,33.419483,-112.071526,3/8/19,95455,J1772,public
ELEC,Camelback Auto Repair,1050 E. Camelback,Phoenix,AZ,85014,1,Public,Blink Network,33.50927,-112.058624,3/8/19,95456,J1772,public
ELEC,Capital Source Financial,6436 E Broadway,Tucson,AZ,85710,1,Public,Blink Network,32.218759,-110.85632,3/8/19,95463,J1772,public
ELEC,Twin Peaks Restaurant,8787 Frank Lloyd Wright Blvd,Scottsdale,AZ,85260,1,Public,Blink Network,33.6296087,-111.8909014,3/8/19,95472,J1772,public
ELEC,Saint Francis in the Foothills,4625 E. River Road,Tucson,AZ,85718,1,Public,Blink Network,32.281121,-110.894007,3/8/19,95483,J1772,public
ELEC,Fry's Store #75 Gilbert,3261 E. Pecos Rd.,Gilbert,AZ,85295,1,Public,Blink Network,33.290896,-111.719049,3/8/19,95495,J1772,public
ELEC,Fry's Store #670 Gilbert,6470 S. Higley Rd.,Gilbert,AZ,85298,1,Public,Blink Network,33.231868,-111.722818,3/8/19,95498,J1772,public
ELEC,American Lung Association,102 West McDowell Road,Phoenix,AZ,85003,1,Public,Blink Network,33.466152,-112.076006,3/8/19,95513,J1772,public
ELEC,15880 N. Greenway Hayden Loop,15880 N. Greenway Hayden Loop,Scottsdale,AZ,85260,1,Public,Blink Network,33.630926,-111.912324,3/8/19,95518,J1772,public
ELEC,Pima Crossing Regency Center,8730 East Shea Blvd,Scottsdale,AZ,85260,1,Public,Blink Network,33.583443,-111.895122,3/8/19,95519,J1772,public
ELEC,Paradise Valley Community College,18401 N. 32nd Street,Phoenix,AZ,85032,1,Public,Blink Network,33.654307,-112.009048,3/8/19,95522,J1772,public
ELEC,Morning Star Properties,710 N Echols Ave,Tucson,AZ,85705,1,Public,Blink Network,32.230671,-110.970743,3/8/19,95529,J1772,public
ELEC,University of Arizona 2nd St Garage,1340 E. 2nd Street,Tucson,AZ,85719,1,Public,Blink Network,32.235238,-110.952151,3/8/19,95530,J1772,public
ELEC,APS - Deer Valley - POV 1,2124 West Cheryl Drive,Phoenix,AZ,85021,1,Private,Blink Network,33.579039,-112.10652,3/8/19,95534,J1772,private
ELEC,APS - Deer Valley - POV 2,2124 West Cheryl Drive,Phoenix,AZ,85021,1,Private,Blink Network,33.578443,-112.104559,3/8/19,95535,J1772,private
ELEC,Fry's Store #64 Gilbert,714 S. Val Vista,Gilbert,AZ,85296,1,Public,Blink Network,33.337406,-111.7568659,3/8/19,95538,CHADEMO,public
ELEC,Prudential,16260 N 71st Street,Scottsdale,AZ,85254,1,Public,Blink Network,33.635752,-111.929521,3/8/19,95555,J1772,public
ELEC,Outlets at Anthem,4250 W. Anthem Way,Phoenix,AZ,85086,1,Public,Blink Network,33.875617,-112.149145,3/8/19,95568,J1772,public
ELEC,Fry's Store #474 Cave Creek,29455 N. Cave Creek Rd.,Cave Creek,AZ,85331,1,Public,Blink Network,33.752384,-111.9907679,3/8/19,95587,J1772,public
ELEC,Ventana Medical Systems,1910 E. Innovation Park Drive,Oro Valley,AZ,85755,1,Public,Blink Network,32.438011,-110.942756,3/8/19,95591,J1772,public
ELEC,99 E. Virginia Ave - North Side of Building,"99 E. Virginia Ave., Suite 120",Phoenix,AZ,85004,1,Public,Blink Network,33.4765433,-112.0707662,3/8/19,95610,J1772,public
ELEC,Phoenix Community College Garage,1202 W Thomas Road,Phoenix,AZ,85013,1,Public,Blink Network,33.482058,-112.090209,3/8/19,95616,J1772,public
ELEC,Nanni Branch Library,7300 N. Shannon,Tucson,AZ,85741,1,Public,Blink Network,32.34001,-111.02728,3/8/19,95631,J1772,public
ELEC,99 E. Virginia Ave - South Side of Building,99 E. Virginia Ave,Phoenix,AZ,85004,1,Public,Blink Network,33.4765433,-112.0707662,3/8/19,95635,J1772,public
ELEC,Town of Cave Creek,37622 N. Cave Creek Rd,Cave Creek,AZ,85331,1,Public,Blink Network,33.827298,-111.955698,3/8/19,95648,J1772,public
ELEC,Ina Levine Jewish Community Center,12701 N. Scottsdale Road Suite 120,Scottsdale,AZ,85254,1,Public,Blink Network,33.602592,-111.924956,3/8/19,95653,J1772,public
ELEC,Orange Grove Medical and Dental,1845 W. Orange Grove Road,Tucson,AZ,85704,1,Public,Blink Network,32.322369,-111.005233,3/8/19,95655,J1772,public
ELEC,City Hall Parking Garage,240 S Washington Street,Chandler,AZ,85225,1,Public,Blink Network,33.300184,-111.840246,3/8/19,95668,J1772,public
ELEC,Fry's Store #618 Phoenix,3246 E. Bell Rd.,Phoenix,AZ,85032,1,Public,Blink Network,33.6407279,-112.012143,3/8/19,95676,J1772,public
ELEC,Papago Center,350 W Washington,Tempe,AZ,85281,1,Public,Blink Network,33.437434,-111.943638,3/8/19,95681,J1772,public
ELEC,Kortman Electric EVSE,2416 S. 17th Place,Phoenix,AZ,85034,1,Private,Blink Network,33.425066,-112.044976,3/8/19,95686,J1772,private
ELEC,305 W. Washington Garage,305 W. Washington,Phoenix,AZ,85003,1,Private,Blink Network,33.447736,-112.078384,3/8/19,95695,J1772,private
ELEC,Sky Harbor Airport Terminal 4,3400 E. Sky Harbor Blvd,Phoenix,AZ,85034,1,Private,Blink Network,33.43475,-112.00644,3/8/19,95705,J1772,private
ELEC,Phoenix Convention Center - East Garage 4th Level,601 E. Washington Street,Phoenix,AZ,85004,1,Public,Blink Network,33.447637,-112.066308,3/8/19,95706,J1772,public
ELEC,Phoenix Children's Museum,215 N 7th Street,Phoenix,AZ,85034,1,Public,Blink Network,33.450052,-112.064103,3/8/19,95707,J1772,public
ELEC,Fry's Store #74 Peoria,8375 W. Deer Valley Rd.,Peoria,AZ,85382,1,Public,Blink Network,33.680109,-112.239573,3/8/19,95713,J1772,public
ELEC,"HSL Tucson National Apartments, LLC",8323 N. Shannon Rd.,Tucson,AZ,85742,1,Public,Blink Network,32.35768,-111.031039,3/8/19,95737,J1772,public
ELEC,One North Central Parking Garage,One North Central Avenue,Phoenix,AZ,85004,1,Public,Blink Network,33.4487268,-112.0737094,3/8/19,95738,J1772,public
ELEC,Central Point Business Plaza,3957 E. Speedway Blvd,Tucson,AZ,85712,1,Public,Blink Network,32.236915,-110.907701,3/8/19,95742,J1772,public
ELEC,Desert Botanical Garden,1201 N. Galvin Pkwy,Phoenix,AZ,85008,1,Public,Blink Network,33.46272,-111.944439,3/8/19,95747,J1772,public
ELEC,Ascension Lutheran Church,7100 North Mockingbird Lane,Paradise Valley,AZ,85253,1,Public,Blink Network,33.54093,-111.935054,3/8/19,95766,J1772,public
ELEC,Mesa Convention Center,263 N. Center Street,Mesa,AZ,85201,1,Public,Blink Network,33.420364,-111.831447,3/8/19,95771,J1772,public
ELEC,The Shops at Gainey Village,8787 N. Scottsdale Road,Scottsdale,AZ,85253,1,Public,Blink Network,33.566109,-111.924482,3/8/19,95773,J1772,public
ELEC,Fry's Store #641 Phoenix,3511 W. Peoria Ave.,Phoenix,AZ,85029,1,Public,Blink Network,33.581832,-112.1351529,3/8/19,95774,J1772,public
ELEC,Rio Salado - Thomas,3631 W Thomas Road,Phoenix,AZ,85009,1,Public,Blink Network,33.479992,-112.138214,3/8/19,95784,J1772,public
ELEC,City Lot West of Mesa City Plaza,125 W Pepper Pl,Mesa,AZ,85201,1,Public,Blink Network,33.416179,-111.83475,3/8/19,95790,J1772,public
ELEC,Plaza Del Oro,6400 N. Oracle Road,Tucson,AZ,85704,1,Public,Blink Network,32.324471,-110.973242,3/8/19,95796,J1772,public
ELEC,Mod Box 10x10x10,749 south 2nd street Unit#3,Phoenix,AZ,85004,1,Public,Blink Network,33.439364,-112.070849,3/8/19,95806,J1772,public
ELEC,City of Chandler Park Side,11 W Buffalo St,Chandler,AZ,85225,1,Public,Blink Network,33.304455,-111.841933,3/8/19,95807,J1772,public
ELEC,"Medicis, Inc.",7720 N Dobson Rd,Scottsdale,AZ,85256,1,Private,Blink Network,33.547716,-111.877703,3/8/19,95808,J1772,private
ELEC,Mesa Community College,1833 W Southern Ave,Mesa,AZ,85202,1,Public,Blink Network,33.392506,-111.870341,3/8/19,95824,J1772,public
ELEC,Baker-Herder Building - Table Talk,6842 East Tanque Verde Road,Tucson,AZ,85715,1,Public,Blink Network,32.249684,-110.845892,3/8/19,95826,J1772,public
